data form,UtcTime,Latitude,NS,Longitude,EW,GPS Status,Numers of satellite,HDOP,Altitude,Unit1,ADGH,Unit2,RTCM SC-104,End
$GPGGA,203221.447,3724.949916,N,12204.74962,W,4,33,3.91,11.72,M,-32.95,M,0,*4D
$GPFPD,1151,246759.447,0,0,0,3724.949916,12204.74962,-21.23,-0.011,-0.026,-0.052,0,,
$GPGGA,203227.447,3724.946131,N,12204.75389,W,4,33,3.79,10.22,M,-32.95,M,0,*44
$GPFPD,1151,246765.447,0,0,0,3724.946131,12204.75389,-22.731,-0.012,-0.048,0.067,0,,
$GPGGA,203228.447,3724.948583,N,12204.75297,W,4,33,2.51,21.32,M,-32.95,M,0,*48
$GPFPD,1151,246766.447,0,0,0,3724.948583,12204.75297,-11.627,-1.309,2.166,-5.513,0,,
$GPGGA,203230.447,3724.948492,N,12204.75254,W,4,32,3.74,4.94,M,-32.95,M,0,*76
$GPFPD,1151,246768.447,0,0,0,3724.948492,12204.75254,-28.015,-0.015,0.037,-0.123,0,,
$GPGGA,203231.447,3724.946637,N,12204.75172,W,4,35,2.31,11.53,M,-32.95,M,0,*4C
$GPFPD,1151,246769.447,0,0,0,3724.946637,12204.75172,-21.426,0.018,-0.101,0.162,0,,
$GPGGA,203242.447,3724.946963,N,12204.75186,W,4,35,2.39,5.72,M,-32.95,M,0,*7A
$GPFPD,1151,246780.447,0,0,0,3724.946963,12204.75186,-27.233,0.006,0.043,-0.065,0,,
$GPGGA,203245.447,3724.945511,N,12204.74915,W,4,37,2.28,13.5,M,-32.95,M,0,*48
$GPFPD,1151,246783.447,0,0,0,3724.945511,12204.74915,-19.449,0.007,0.009,-0.048,0,,
$GPGGA,203250.447,3724.946112,N,12204.74856,W,4,38,2.28,15.21,M,-32.95,M,0,*4D
$GPFPD,1151,246788.447,0,0,0,3724.946112,12204.74856,-17.74,0,-0.013,0.007,0,,
$GPGGA,203251.447,3724.947262,N,12204.75063,W,4,37,2.28,7,M,-32.95,M,0,*73
$GPFPD,1151,246789.447,0,0,0,3724.947262,12204.75063,-25.95,0.015,-0.08,0.166,0,,
$GPGGA,203255.447,3724.946457,N,12204.74809,W,4,36,2.28,12.49,M,-32.95,M,0,*47
$GPFPD,1151,246793.447,0,0,0,3724.946457,12204.74809,-20.459,0.042,-0.079,0.151,0,,
$GPGGA,203256.447,3724.944589,N,12204.74705,W,4,38,2.53,19.35,M,-32.95,M,0,*40
$GPFPD,1151,246794.447,0,0,0,3724.944589,12204.74705,-13.606,0.031,-0.006,0.05,0,,
$GPGGA,203257.447,3724.945362,N,12204.74934,W,1,38,2.2,13.79,M,-32.95,M,0,*41
$GPFPD,1151,246795.447,0,0,0,3724.945362,12204.74934,-19.165,0.005,0.006,0.026,0,,
$GPGGA,203258.447,3724.948784,N,12204.75427,W,1,37,2.04,13.71,M,-32.95,M,0,*40
$GPFPD,1151,246796.447,0,0,0,3724.948784,12204.75427,-19.244,-1.15,1.098,-3.415,0,,
$GPGGA,203259.447,3724.949768,N,12204.75612,W,1,38,2.03,11.68,M,-32.95,M,0,*4E
$GPFPD,1151,246797.447,0,0,0,3724.949768,12204.75612,-21.27,-0.988,0.991,-3.308,0,,
$GPGGA,203300.447,3724.949332,N,12204.75657,W,1,37,2.03,10.33,M,-32.95,M,0,*43
$GPFPD,1151,246798.447,0,0,0,3724.949332,12204.75657,-22.621,-1.031,0.936,-3.299,0,,
$GPGGA,203301.447,3724.949514,N,12204.75644,W,1,35,1.29,7.44,M,-32.95,M,0,*7D
$GPFPD,1151,246799.447,0,0,0,3724.949514,12204.75644,-25.511,-1.133,0.958,-3.043,0,,
$GPGGA,203302.447,3724.949515,N,12204.75647,W,1,38,1.61,6.99,M,-32.95,M,0,*70
$GPFPD,1151,246800.447,0,0,0,3724.949515,12204.75647,-25.965,-1.316,0.987,-2.681,0,,
$GPGGA,203303.447,3724.949449,N,12204.75681,W,1,37,1.61,6.15,M,-32.95,M,0,*73
$GPFPD,1151,246801.447,0,0,0,3724.949449,12204.75681,-26.806,-1.352,0.968,-2.631,0,,
$GPGGA,203304.447,3724.949297,N,12204.75723,W,1,37,2.04,5,M,-32.95,M,0,*7D
$GPFPD,1151,246802.447,0,0,0,3724.949297,12204.75723,-27.947,-1.321,0.981,-2.602,0,,
$GPGGA,203305.447,3724.949506,N,12204.7579,W,1,37,1.6,2.17,M,-32.95,M,0,*79
$GPFPD,1151,246803.447,0,0,0,3724.949507,12204.7579,-30.784,-1.277,0.964,-2.714,0,,
$GPGGA,203306.447,3724.949738,N,12204.7583,W,1,36,1.6,-0.51,M,-32.95,M,0,*5C
$GPFPD,1151,246804.447,0,0,0,3724.949738,12204.7583,-33.465,-1.227,0.945,-2.691,0,,
$GPGGA,203307.447,3724.95002,N,12204.75888,W,1,36,2.04,0.13,M,-32.95,M,0,*72
$GPFPD,1151,246805.447,0,0,0,3724.95002,12204.75888,-32.826,-1.316,0.948,-2.363,0,,
$GPGGA,203308.447,3724.95042,N,12204.75937,W,1,35,2.17,0.32,M,-32.95,M,0,*7C
$GPFPD,1151,246806.447,0,0,0,3724.95042,12204.75937,-32.636,-1.052,0.955,-2.372,0,,
$GPGGA,203309.447,3724.950816,N,12204.75978,W,1,35,2.81,0.44,M,-32.95,M,0,*79
$GPFPD,1151,246807.447,0,0,0,3724.950816,12204.75978,-32.507,-0.288,0.879,-1.599,0,,
$GPGGA,203310.447,3724.95092,N,12204.75981,W,1,34,5.06,0.03,M,-32.95,M,0,*77
$GPFPD,1151,246808.447,0,0,0,3724.95092,12204.75981,-32.92,-0.907,0.795,-3.697,0,,
$GPGGA,203311.447,3724.951233,N,12204.75979,W,1,35,1.27,-2.65,M,-32.95,M,0,*54
$GPFPD,1151,246809.447,0,0,0,3724.951233,12204.75979,-35.598,-1.088,0.937,-2.538,0,,
$GPGGA,203312.447,3724.951422,N,12204.7601,W,1,37,2.08,-0.25,M,-32.95,M,0,*52
$GPFPD,1151,246810.447,0,0,0,3724.951422,12204.7601,-33.205,-0.974,0.862,-3.928,0,,
$GPGGA,203313.447,3724.951788,N,12204.76051,W,1,29,2.67,-0.5,M,-32.95,M,0,*5D
$GPFPD,1151,246811.447,0,0,0,3724.951788,12204.76051,-33.449,-0.935,0.544,-1.399,0,,
$GPGGA,203314.447,3724.951823,N,12204.76043,W,1,35,2.52,0.06,M,-32.95,M,0,*78
$GPFPD,1151,246812.447,0,0,0,3724.951823,12204.76043,-32.892,-0.72,-0.307,-0.615,0,,
$GPGGA,203315.447,3724.951574,N,12204.76034,W,1,36,2.6,-0.4,M,-32.95,M,0,*56
$GPFPD,1151,246813.447,0,0,0,3724.951574,12204.76034,-33.349,-0.468,-0.133,-1.025,0,,
$GPGGA,203316.447,3724.951301,N,12204.76046,W,1,36,5.84,-0.85,M,-32.95,M,0,*5E
$GPFPD,1151,246814.447,0,0,0,3724.951301,12204.76046,-33.807,-0.493,-0.138,-0.786,0,,
$GPGGA,203317.447,3724.951003,N,12204.7603,W,1,38,1.94,-1.29,M,-32.95,M,0,*5B
$GPFPD,1151,246815.447,0,0,0,3724.951003,12204.7603,-34.245,-0.336,-0.134,-0.791,0,,
$GPGGA,203318.447,3724.950689,N,12204.76014,W,1,36,2.49,-1.34,M,-32.95,M,0,*50
$GPFPD,1151,246816.447,0,0,0,3724.950689,12204.76014,-34.295,-0.36,-0.185,-0.547,0,,
$GPGGA,203319.447,3724.950583,N,12204.76021,W,1,35,2.04,-1.69,M,-32.95,M,0,*54
$GPFPD,1151,246817.447,0,0,0,3724.950583,12204.76021,-34.642,-0.424,-0.086,-0.741,0,,
$GPGGA,203320.447,3724.95044,N,12204.76008,W,1,35,2.49,-1.79,M,-32.95,M,0,*59
$GPFPD,1151,246818.447,0,0,0,3724.95044,12204.76008,-34.744,-0.4,-0.154,-0.487,0,,
$GPGGA,203321.447,3724.950312,N,12204.75993,W,1,35,1.75,-2.34,M,-32.95,M,0,*5D
$GPFPD,1151,246819.447,0,0,0,3724.950312,12204.75993,-35.297,-0.344,-0.254,-0.615,0,,
$GPGGA,203322.447,3724.950085,N,12204.76011,W,1,35,1.71,-3.19,M,-32.95,M,0,*5D
$GPFPD,1151,246820.447,0,0,0,3724.950085,12204.76011,-36.147,-0.417,-0.257,-0.761,0,,
$GPGGA,203323.447,3724.949852,N,12204.75987,W,1,35,1.23,-3.27,M,-32.95,M,0,*50
$GPFPD,1151,246821.447,0,0,0,3724.949852,12204.75987,-36.226,-0.307,-0.235,-0.309,0,,
$GPGGA,203324.447,3724.949601,N,12204.76013,W,1,30,11.29,-2.67,M,-32.95,M,0,*69
$GPFPD,1151,246822.447,0,0,0,3724.949601,12204.76013,-35.623,-0.517,-0.292,-0.473,0,,
$GPGGA,203325.447,3724.94953,N,12204.76021,W,1,34,2.25,-2.29,M,-32.95,M,0,*5B
$GPFPD,1151,246823.447,0,0,0,3724.94953,12204.76021,-35.24,-0.028,-0.191,0.142,0,,
$GPGGA,203326.447,3724.949536,N,12204.76005,W,1,35,2.68,-2.14,M,-32.95,M,0,*5E
$GPFPD,1151,246824.447,0,0,0,3724.949536,12204.76005,-35.096,0.032,-0.099,0.175,0,,
$GPGGA,203327.447,3724.949424,N,12204.76016,W,1,33,2.18,-2.27,M,-32.95,M,0,*5D
$GPFPD,1151,246825.447,0,0,0,3724.949424,12204.76016,-35.221,-0.339,-0.265,-0.073,0,,
$GPGGA,203328.447,3724.949306,N,12204.76027,W,1,35,2.38,-2.45,M,-32.95,M,0,*59
$GPFPD,1151,246826.447,0,0,0,3724.949306,12204.76027,-35.405,-0.524,-0.279,-0.287,0,,
$GPGGA,203329.447,3724.949193,N,12204.76054,W,1,35,1.92,-2.78,M,-32.95,M,0,*56
$GPFPD,1151,246827.447,0,0,0,3724.949193,12204.76054,-35.736,-0.589,-0.22,-0.459,0,,
$GPGGA,203330.447,3724.949179,N,12204.76058,W,1,34,1.63,-3.57,M,-32.95,M,0,*52
$GPFPD,1151,246828.447,0,0,0,3724.949179,12204.76058,-36.522,-0.387,-0.146,-0.754,0,,
$GPGGA,203331.447,3724.949124,N,12204.76051,W,1,35,0.98,-3.99,M,-32.95,M,0,*5E
$GPFPD,1151,246829.447,0,0,0,3724.949124,12204.76051,-36.943,-0.383,-0.211,-0.388,0,,
$GPGGA,203332.447,3724.949147,N,12204.76072,W,1,36,1.9,-4.62,M,-32.95,M,0,*55
$GPFPD,1151,246830.447,0,0,0,3724.949147,12204.76072,-37.571,-0.439,-0.104,-0.625,0,,
$GPGGA,203333.447,3724.949021,N,12204.76069,W,1,37,2.72,-4.01,M,-32.95,M,0,*5A
$GPFPD,1151,246831.447,0,0,0,3724.949021,12204.76069,-36.958,-0.29,-0.039,-0.167,0,,
$GPGGA,203334.447,3724.948947,N,12204.7605,W,1,35,3.7,-3.45,M,-32.95,M,0,*5A
$GPFPD,1151,246832.447,0,0,0,3724.948947,12204.7605,-36.407,-0.123,-0.054,0.375,0,,
$GPGGA,203335.447,3724.948886,N,12204.76064,W,1,35,5.3,-3.4,M,-32.95,M,0,*58
$GPFPD,1151,246833.447,0,0,0,3724.948886,12204.76064,-36.348,-0.449,-0.09,-0.528,0,,
$GPGGA,203336.447,3724.948809,N,12204.76082,W,1,37,5.46,-3.31,M,-32.95,M,0,*51
$GPFPD,1151,246834.447,0,0,0,3724.94881,12204.76082,-36.258,-0.243,-0.096,0.403,0,,
$GPGGA,203337.447,3724.948808,N,12204.76068,W,1,35,5.46,-3.43,M,-32.95,M,0,*59
$GPFPD,1151,246835.447,0,0,0,3724.948808,12204.76068,-36.382,0.207,-0.055,-0.171,0,,
$GPGGA,203338.447,3724.948714,N,12204.76085,W,1,34,5.3,-3.59,M,-32.95,M,0,*58
$GPFPD,1151,246836.447,0,0,0,3724.948714,12204.76085,-36.546,-0.587,-0.092,-0.416,0,,
$GPGGA,203339.447,3724.948617,N,12204.76091,W,1,33,2.35,-3.92,M,-32.95,M,0,*55
$GPFPD,1151,246837.447,0,0,0,3724.948617,12204.76091,-36.871,-0.567,-0.136,-0.503,0,,
$GPGGA,203340.447,3724.948434,N,12204.76114,W,1,35,1.92,-4.13,M,-32.95,M,0,*51
$GPFPD,1151,246838.447,0,0,0,3724.948434,12204.76114,-37.082,-0.562,-0.187,-0.44,0,,
$GPGGA,203341.447,3724.94817,N,12204.76105,W,1,36,1.04,-4.5,M,-32.95,M,0,*50
$GPFPD,1151,246839.447,0,0,0,3724.94817,12204.76105,-37.457,-0.455,-0.243,-0.414,0,,
$GPGGA,203342.447,3724.947968,N,12204.76121,W,1,36,0.94,-4.95,M,-32.95,M,0,*5A
$GPFPD,1151,246840.447,0,0,0,3724.947968,12204.76121,-37.897,-0.392,-0.18,-0.442,0,,
$GPGGA,203343.447,3724.947733,N,12204.76117,W,1,33,1.52,-4.78,M,-32.95,M,0,*5E
$GPFPD,1151,246841.447,0,0,0,3724.947733,12204.76117,-37.734,-0.463,-0.229,-0.37,0,,
$GPGGA,203344.447,3724.947716,N,12204.76127,W,1,34,1.59,-5.22,M,-32.95,M,0,*58
$GPFPD,1151,246842.447,0,0,0,3724.947716,12204.76127,-38.172,-0.491,-0.209,-0.406,0,,
$GPGGA,203345.447,3724.947705,N,12204.76144,W,1,33,1.16,-5.78,M,-32.95,M,0,*5F
$GPFPD,1151,246843.447,0,0,0,3724.947705,12204.76144,-38.736,-0.512,-0.12,-0.467,0,,
$GPGGA,203346.447,3724.947721,N,12204.76154,W,1,34,1.44,-6.26,M,-32.95,M,0,*5F
$GPFPD,1151,246844.447,0,0,0,3724.947721,12204.76154,-39.213,-0.506,-0.096,-0.478,0,,
$GPGGA,203347.447,3724.947769,N,12204.76177,W,1,34,1.36,-6.7,M,-32.95,M,0,*5F
$GPFPD,1151,246845.447,0,0,0,3724.947769,12204.76177,-39.651,-0.522,-0.116,-0.478,0,,
$GPGGA,203348.447,3724.947682,N,12204.76179,W,1,34,1.3,-6.97,M,-32.95,M,0,*58
$GPFPD,1151,246846.447,0,0,0,3724.947682,12204.76179,-39.92,-0.448,-0.075,-0.433,0,,
$GPGGA,203349.447,3724.94762,N,12204.76177,W,1,33,1.27,-7.15,M,-32.95,M,0,*59
$GPFPD,1151,246847.447,0,0,0,3724.94762,12204.76177,-40.102,-0.253,-0.014,-0.371,0,,
$GPGGA,203350.447,3724.947587,N,12204.76184,W,1,35,1.22,-7.38,M,-32.95,M,0,*51
$GPFPD,1151,246848.447,0,0,0,3724.947587,12204.76184,-40.33,-0.473,-0.132,-0.354,0,,
$GPGGA,203351.447,3724.947462,N,12204.76191,W,1,34,2.82,-6.75,M,-32.95,M,0,*58
$GPFPD,1151,246849.447,0,0,0,3724.947462,12204.76191,-39.698,-0.099,-0.011,-0.251,0,,
$GPGGA,203352.447,3724.947473,N,12204.76185,W,1,34,2.16,-6.62,M,-32.95,M,0,*5F
$GPFPD,1151,246850.447,0,0,0,3724.947473,12204.76185,-39.572,0.02,0.031,-0.157,0,,
$GPGGA,203353.447,3724.947455,N,12204.76178,W,1,34,2.63,-6.62,M,-32.95,M,0,*58
$GPFPD,1151,246851.447,0,0,0,3724.947455,12204.76178,-39.572,-0.087,-0.001,-0.139,0,,
$GPGGA,203354.447,3724.947375,N,12204.76164,W,1,34,1.29,-7.1,M,-32.95,M,0,*5A
$GPFPD,1151,246852.447,0,0,0,3724.947375,12204.76164,-40.056,-0.399,-0.041,-0.366,0,,
$GPGGA,203355.447,3724.947333,N,12204.7614,W,1,35,1.29,-7.16,M,-32.95,M,0,*5A
$GPFPD,1151,246853.447,0,0,0,3724.947333,12204.7614,-40.115,-0.068,-0.041,-0.113,0,,
$GPGGA,203356.447,3724.947306,N,12204.76127,W,1,35,1.61,-7.68,M,-32.95,M,0,*5F
$GPFPD,1151,246854.447,0,0,0,3724.947306,12204.76127,-40.637,-0.423,-0.03,-0.667,0,,
$GPGGA,203357.447,3724.947179,N,12204.76136,W,1,33,2.35,-7.62,M,-32.95,M,0,*54
$GPFPD,1151,246855.447,0,0,0,3724.947179,12204.76136,-40.575,-0.51,-0.053,-0.559,0,,
$GPGGA,203358.447,3724.947099,N,12204.76144,W,1,35,1.61,-8.06,M,-32.95,M,0,*51
$GPFPD,1151,246856.447,0,0,0,3724.947099,12204.76144,-41.008,-0.431,-0.084,-0.514,0,,
$GPGGA,203359.447,3724.947049,N,12204.7615,W,1,34,2.73,-7.8,M,-32.95,M,0,*52
$GPFPD,1151,246857.447,0,0,0,3724.947049,12204.7615,-40.749,-0.199,-0.058,-0.293,0,,
$GPGGA,203400.447,3724.947068,N,12204.76145,W,1,33,2.84,-7.68,M,-32.95,M,0,*56
$GPFPD,1151,246858.447,0,0,0,3724.947068,12204.76145,-40.633,0.035,-0.035,-0.038,0,,
$GPGGA,203401.447,3724.947024,N,12204.76156,W,1,33,2.49,-7.7,M,-32.95,M,0,*58
$GPFPD,1151,246859.447,0,0,0,3724.947024,12204.76156,-40.652,-0.567,-0.072,-0.33,0,,
$GPGGA,203402.447,3724.94703,N,12204.76169,W,1,34,2.9,-7.67,M,-32.95,M,0,*59
$GPFPD,1151,246860.447,0,0,0,3724.94703,12204.76169,-40.623,0.007,-0.046,-0.02,0,,
$GPGGA,203403.447,3724.947037,N,12204.76138,W,1,32,1.91,-7.99,M,-32.95,M,0,*5F
$GPFPD,1151,246861.447,0,0,0,3724.947037,12204.76138,-40.94,-0.513,-0.062,-0.428,0,,
$GPGGA,203404.447,3724.946981,N,12204.76131,W,1,35,2.73,-7.88,M,-32.95,M,0,*5F
$GPFPD,1151,246862.447,0,0,0,3724.946981,12204.76131,-40.831,-0.068,-0.076,0.016,0,,
$GPGGA,203405.447,3724.946947,N,12204.76117,W,1,34,2.71,-7.76,M,-32.95,M,0,*53
$GPFPD,1151,246863.447,0,0,0,3724.946947,12204.76117,-40.711,0.014,-0.071,0.099,0,,
$GPGGA,203406.447,3724.946878,N,12204.76111,W,1,34,2.61,-7.71,M,-32.95,M,0,*53
$GPFPD,1151,246864.447,0,0,0,3724.946878,12204.76111,-40.666,-0.008,-0.067,0.08,0,,
$GPGGA,203407.447,3724.94692,N,12204.76109,W,1,32,3.16,-7.69,M,-32.95,M,0,*55
$GPFPD,1151,246865.447,0,0,0,3724.94692,12204.76109,-40.643,-0.008,-0.06,0.063,0,,
$GPGGA,203408.447,3724.946855,N,12204.76075,W,1,33,0.99,-7.65,M,-32.95,M,0,*59
$GPFPD,1151,246866.447,0,0,0,3724.946855,12204.76075,-40.597,0.016,-0.053,0.04,0,,
$GPGGA,203409.447,3724.946782,N,12204.7608,W,1,34,0.9,-7.93,M,-32.95,M,0,*5F
$GPFPD,1151,246867.447,0,0,0,3724.946782,12204.7608,-40.886,-0.128,-0.069,-0.08,0,,
$GPGGA,203410.447,3724.946707,N,12204.76072,W,1,34,1.49,-8.25,M,-32.95,M,0,*57
$GPFPD,1151,246868.447,0,0,0,3724.946708,12204.76072,-41.203,-0.439,-0.08,-0.308,0,,
$GPGGA,203411.447,3724.946571,N,12204.76082,W,1,32,2.47,-8.17,M,-32.95,M,0,*5E
$GPFPD,1151,246869.447,0,0,0,3724.946571,12204.76082,-41.122,-0.531,-0.105,-0.309,0,,
$GPGGA,203412.447,3724.946606,N,12204.7609,W,1,34,1.93,-8.61,M,-32.95,M,0,*54
$GPFPD,1151,246870.447,0,0,0,3724.946606,12204.7609,-41.563,-0.397,-0.081,-0.585,0,,
$GPGGA,203413.447,3724.946525,N,12204.76097,W,1,32,2.04,-8.67,M,-32.95,M,0,*58
$GPFPD,1151,246871.447,0,0,0,3724.946526,12204.76097,-41.624,-0.544,-0.129,-0.436,0,,
$GPGGA,203414.447,3724.946518,N,12204.76093,W,1,34,1.06,-9,M,-32.95,M,0,*56
$GPFPD,1151,246872.447,0,0,0,3724.946518,12204.76093,-41.95,-0.812,-0.091,-0.369,0,,
$GPGGA,203415.447,3724.946386,N,12204.76144,W,1,34,1.63,-8.68,M,-32.95,M,0,*54
$GPFPD,1151,246873.447,0,0,0,3724.946386,12204.76144,-41.629,-1.227,-0.123,-0.124,0,,
$GPGGA,203416.447,3724.946206,N,12204.762,W,1,36,1.15,-8.79,M,-32.95,M,0,*5A
$GPFPD,1151,246874.447,0,0,0,3724.946206,12204.762,-41.739,-1.29,-0.231,-0.241,0,,
$GPGGA,203417.447,3724.945695,N,12204.7628,W,1,35,1.33,-8.97,M,-32.95,M,0,*53
$GPFPD,1151,246875.447,0,0,0,3724.945695,12204.7628,-41.926,-1.66,-1.187,-0.515,0,,
$GPGGA,203418.447,3724.944489,N,12204.76364,W,1,37,1.76,-9.42,M,-32.95,M,0,*5E
$GPFPD,1151,246876.447,0,0,0,3724.944489,12204.76364,-42.372,-1.694,-3.818,-0.488,0,,
$GPGGA,203419.447,3724.942425,N,12204.76419,W,1,37,1.72,-9.18,M,-32.95,M,0,*58
$GPFPD,1151,246877.447,0,0,0,3724.942425,12204.76419,-42.128,-1.356,-5.911,-0.057,0,,
$GPGGA,203420.447,3724.938749,N,12204.76453,W,1,33,1.35,-9.23,M,-32.95,M,0,*5A
$GPFPD,1151,246878.447,0,0,0,3724.938749,12204.76453,-42.181,-0.294,-8.417,-0.227,0,,
$GPGGA,203421.447,3724.934809,N,12204.76436,W,1,33,1.43,-8.83,M,-32.95,M,0,*5D
$GPFPD,1151,246879.447,0,0,0,3724.934809,12204.76436,-41.784,-0.261,-8.596,0.244,0,,
$GPGGA,203422.447,3724.931269,N,12204.76383,W,1,36,1.62,-7.89,M,-32.95,M,0,*5D
$GPFPD,1151,246880.447,0,0,0,3724.931269,12204.76383,-40.843,-0.066,-6.986,1.081,0,,
$GPGGA,203423.447,3724.928576,N,12204.76299,W,1,34,2.28,-9.1,M,-32.95,M,0,*5B
$GPFPD,1151,246881.447,0,0,0,3724.928576,12204.76299,-42.05,1.509,-4.278,-4.308,0,,
$GPGGA,203424.447,3724.926935,N,12204.76163,W,1,33,1.36,-8.98,M,-32.95,M,0,*57
$GPFPD,1151,246882.447,0,0,0,3724.926935,12204.76163,-41.934,1.009,-2.704,0.442,0,,
$GPGGA,203425.447,3724.925492,N,12204.76069,W,1,35,1.57,-6.81,M,-32.95,M,0,*59
$GPFPD,1151,246883.447,0,0,0,3724.925492,12204.76069,-39.764,1.114,-1.816,-0.22,0,,
$GPGGA,203426.447,3724.924946,N,12204.7595,W,1,34,5.22,-8.48,M,-32.95,M,0,*5B
$GPFPD,1151,246884.447,0,0,0,3724.924946,12204.7595,-41.435,1.45,-1.199,0.425,0,,
$GPGGA,203427.447,3724.924697,N,12204.75703,W,1,35,1.37,-8.22,M,-32.95,M,0,*58
$GPFPD,1151,246885.447,0,0,0,3724.924697,12204.75703,-41.177,3.582,-0.846,0.021,0,,
$GPGGA,203428.447,3724.925253,N,12204.75303,W,1,33,1.55,-7.92,M,-32.95,M,0,*55
$GPFPD,1151,246886.447,0,0,0,3724.925253,12204.75303,-40.874,6.344,0.471,0.113,0,,
$GPGGA,203429.447,3724.926013,N,12204.74593,W,1,33,1.17,-7.1,M,-32.95,M,0,*51
$GPFPD,1151,246887.447,0,0,0,3724.926013,12204.74593,-40.049,8.753,1.787,0.503,0,,
$GPGGA,203430.447,3724.927858,N,12204.73814,W,1,31,1.01,-6.89,M,-32.95,M,0,*53
$GPFPD,1151,246888.447,0,0,0,3724.927858,12204.73814,-39.845,10.165,3.166,-0.343,0,,
$GPGGA,203431.447,3724.929691,N,12204.72991,W,1,32,0.94,-6.82,M,-32.95,M,0,*59
$GPFPD,1151,246889.447,0,0,0,3724.929691,12204.72991,-39.771,10.071,3.04,-0.211,0,,
$GPGGA,203432.447,3724.931411,N,12204.72277,W,1,35,0.91,-5.9,M,-32.95,M,0,*55
$GPFPD,1151,246890.447,0,0,0,3724.931411,12204.72277,-38.849,9.468,2.436,0.498,0,,
$GPGGA,203433.447,3724.932546,N,12204.71667,W,1,32,1.04,-5.38,M,-32.95,M,0,*52
$GPFPD,1151,246891.447,0,0,0,3724.932546,12204.71667,-38.326,8.467,1.298,0.282,0,,
$GPGGA,203434.447,3724.932805,N,12204.7113,W,1,31,0.88,-4.96,M,-32.95,M,0,*59
$GPFPD,1151,246892.447,0,0,0,3724.932805,12204.7113,-37.912,7.139,-0.139,0.229,0,,
$GPGGA,203435.447,3724.933422,N,12204.70717,W,1,35,0.8,-4.17,M,-32.95,M,0,*5A
$GPFPD,1151,246893.447,0,0,0,3724.933422,12204.70717,-37.119,5.152,0.365,0.314,0,,
$GPGGA,203436.447,3724.933577,N,12204.7039,W,1,36,0.89,-3.05,M,-32.95,M,0,*59
$GPFPD,1151,246894.447,0,0,0,3724.933577,12204.7039,-36.005,3.705,-0.313,0.514,0,,
$GPGGA,203437.447,3724.933392,N,12204.70169,W,1,36,0.85,-2.39,M,-32.95,M,0,*53
$GPFPD,1151,246895.447,0,0,0,3724.933392,12204.70169,-35.339,3.033,-0.428,0.182,0,,
$GPGGA,203438.447,3724.933464,N,12204.69944,W,1,31,0.88,-2.02,M,-32.95,M,0,*59
$GPFPD,1151,246896.447,0,0,0,3724.933464,12204.69944,-34.968,2.105,-0.312,-0.113,0,,
$GPGGA,203439.447,3724.933494,N,12204.69824,W,1,36,0.97,-1.78,M,-32.95,M,0,*51
$GPFPD,1151,246897.447,0,0,0,3724.933494,12204.69824,-34.73,1.441,-0.448,-0.089,0,,
$GPGGA,203440.447,3724.93332,N,12204.69705,W,1,37,0.86,-1.29,M,-32.95,M,0,*58
$GPFPD,1151,246898.447,0,0,0,3724.93332,12204.69705,-34.243,1.11,-0.254,-0.097,0,,
$GPGGA,203441.447,3724.933117,N,12204.69643,W,1,37,0.94,-0.88,M,-32.95,M,0,*50
$GPFPD,1151,246899.447,0,0,0,3724.933117,12204.69643,-33.833,0.374,-0.13,-0.053,0,,
$GPGGA,203442.447,3724.933032,N,12204.69649,W,1,36,0.96,-0.41,M,-32.95,M,0,*58
$GPFPD,1151,246900.447,0,0,0,3724.933032,12204.69649,-33.361,0.005,-0.123,0.014,0,,
$GPGGA,203443.447,3724.932933,N,12204.69651,W,1,36,1.06,0.03,M,-32.95,M,0,*78
$GPFPD,1151,246901.447,0,0,0,3724.932933,12204.69651,-32.922,0.01,-0.086,0.039,0,,
$GPGGA,203444.447,3724.932985,N,12204.69659,W,1,36,0.94,0.29,M,-32.95,M,0,*78
$GPFPD,1151,246902.447,0,0,0,3724.932985,12204.69659,-32.66,-0.002,-0.05,0.031,0,,
$GPGGA,203445.447,3724.932844,N,12204.69668,W,1,38,0.92,0.59,M,-32.95,M,0,*70
$GPFPD,1151,246903.447,0,0,0,3724.932844,12204.69668,-32.358,-0.006,-0.04,0.014,0,,
$GPGGA,203446.447,3724.93268,N,12204.69643,W,1,38,0.78,1.18,M,-32.95,M,0,*79
$GPFPD,1151,246904.447,0,0,0,3724.93268,12204.69643,-31.767,0.084,-0.069,0.047,0,,
$GPGGA,203447.447,3724.932589,N,12204.69624,W,1,36,0.93,1.68,M,-32.95,M,0,*79
$GPFPD,1151,246905.447,0,0,0,3724.932589,12204.69624,-31.268,0.253,-0.097,0.042,0,,
$GPGGA,203448.447,3724.932672,N,12204.69636,W,1,36,0.96,1.82,M,-32.95,M,0,*7A
$GPFPD,1151,246906.447,0,0,0,3724.932672,12204.69636,-31.135,0.016,-0.065,0.045,0,,
$GPGGA,203449.447,3724.932793,N,12204.69649,W,1,35,0.88,1.92,M,-32.95,M,0,*70
$GPFPD,1151,246907.447,0,0,0,3724.932793,12204.69649,-31.029,-0.015,-0.044,0.041,0,,
$GPGGA,203450.447,3724.932905,N,12204.69661,W,1,36,0.87,2.1,M,-32.95,M,0,*72
$GPFPD,1151,246908.447,0,0,0,3724.932905,12204.69661,-30.847,-0.009,-0.028,0.041,0,,
$GPGGA,203451.447,3724.932972,N,12204.69659,W,1,36,0.93,2.47,M,-32.95,M,0,*7C
$GPFPD,1151,246909.447,0,0,0,3724.932972,12204.69659,-30.483,-0.006,-0.015,0.045,0,,
$GPGGA,203452.447,3724.933109,N,12204.69661,W,1,37,0.87,2.54,M,-32.95,M,0,*73
$GPFPD,1151,246910.447,0,0,0,3724.933109,12204.69661,-30.41,-0.003,-0.006,0.044,0,,
$GPGGA,203453.447,3724.933235,N,12204.69665,W,1,37,0.95,2.66,M,-32.95,M,0,*7D
$GPFPD,1151,246911.447,0,0,0,3724.933235,12204.69665,-30.286,-0.011,0.003,-0.025,0,,
$GPGGA,203454.447,3724.933293,N,12204.69663,W,1,37,0.9,3,M,-32.95,M,0,*71
$GPFPD,1151,246912.447,0,0,0,3724.933293,12204.69663,-29.953,-0.009,-0.018,0.032,0,,
$GPGGA,203455.447,3724.933319,N,12204.69668,W,1,38,0.79,2.99,M,-32.95,M,0,*77
$GPFPD,1151,246913.447,0,0,0,3724.933319,12204.69668,-29.957,-0.026,0.002,-0.028,0,,
$GPGGA,203456.447,3724.93335,N,12204.69662,W,1,38,0.82,3.13,M,-32.95,M,0,*70
$GPFPD,1151,246914.447,0,0,0,3724.93335,12204.69662,-29.824,-0.021,-0.008,0.001,0,,
$GPGGA,203457.447,3724.93336,N,12204.69672,W,1,38,0.79,3.3,M,-32.95,M,0,*73
$GPFPD,1151,246915.447,0,0,0,3724.93336,12204.69672,-29.65,-0.019,-0.022,0.034,0,,
$GPGGA,203458.447,3724.93338,N,12204.6967,W,1,38,0.95,3.58,M,-32.95,M,0,*7C
$GPFPD,1151,246916.447,0,0,0,3724.93338,12204.6967,-29.367,-0.02,-0.02,0.029,0,,
$GPGGA,203459.447,3724.933496,N,12204.69666,W,1,38,0.91,3.86,M,-32.95,M,0,*7A
$GPFPD,1151,246917.447,0,0,0,3724.933496,12204.69666,-29.093,-0.023,0.006,-0.002,0,,
$GPGGA,203500.447,3724.933513,N,12204.69669,W,1,37,0.88,3.97,M,-32.95,M,0,*7C
$GPFPD,1151,246918.447,0,0,0,3724.933513,12204.69669,-28.975,-0.022,0.005,-0.023,0,,
$GPGGA,203501.447,3724.933545,N,12204.69666,W,1,37,0.89,4.18,M,-32.95,M,0,*78
$GPFPD,1151,246919.447,0,0,0,3724.933545,12204.69666,-28.766,-0.025,-0.001,-0.011,0,,
$GPGGA,203502.447,3724.933569,N,12204.69667,W,1,37,0.82,4.39,M,-32.95,M,0,*7B
$GPFPD,1151,246920.447,0,0,0,3724.933569,12204.69667,-28.557,-0.032,0.009,-0.033,0,,
$GPGGA,203503.447,3724.933603,N,12204.69669,W,1,37,0.8,4.48,M,-32.95,M,0,*76
$GPFPD,1151,246921.447,0,0,0,3724.933603,12204.69669,-28.471,-0.034,0.003,-0.026,0,,
$GPGGA,203504.447,3724.933677,N,12204.69671,W,1,37,1.02,4.75,M,-32.95,M,0,*71
$GPFPD,1151,246922.447,0,0,0,3724.933677,12204.69671,-28.195,-0.005,0.013,-0.028,0,,
$GPGGA,203505.447,3724.933747,N,12204.69668,W,1,37,1.12,4.89,M,-32.95,M,0,*7C
$GPFPD,1151,246923.447,0,0,0,3724.933747,12204.69668,-28.064,-0.029,-0.008,-0.014,0,,
$GPGGA,203506.447,3724.933713,N,12204.69675,W,1,37,0.98,5.07,M,-32.95,M,0,*75
$GPFPD,1151,246924.447,0,0,0,3724.933713,12204.69675,-27.876,-0.028,-0.008,-0.009,0,,
$GPGGA,203507.447,3724.933764,N,12204.69677,W,1,36,1.24,5.24,M,-32.95,M,0,*79
$GPFPD,1151,246925.447,0,0,0,3724.933764,12204.69677,-27.707,-0.009,-0.001,0.018,0,,
$GPGGA,203508.447,3724.933815,N,12204.69679,W,1,37,0.94,5.26,M,-32.95,M,0,*7F
$GPFPD,1151,246926.447,0,0,0,3724.933815,12204.69679,-27.694,-0.014,-0.009,0.015,0,,
$GPGGA,203509.447,3724.933829,N,12204.69662,W,1,36,1.07,5.41,M,-32.95,M,0,*74
$GPFPD,1151,246927.447,0,0,0,3724.93383,12204.69662,-27.54,-0.018,-0.017,-0.02,0,,
$GPGGA,203510.447,3724.933851,N,12204.69661,W,1,35,0.97,5.34,M,-32.95,M,0,*7F
$GPFPD,1151,246928.447,0,0,0,3724.933851,12204.69661,-27.61,-0.031,-0.01,-0.02,0,,
$GPGGA,203511.447,3724.933724,N,12204.69647,W,1,38,0.91,5.52,M,-32.95,M,0,*71
$GPFPD,1151,246929.447,0,0,0,3724.933724,12204.69647,-27.426,0.063,-0.023,-0.014,0,,
$GPGGA,203512.447,3724.933443,N,12204.69626,W,1,36,0.89,5.8,M,-32.95,M,0,*7D
$GPFPD,1151,246930.447,0,0,0,3724.933443,12204.69626,-27.147,0.162,-0.085,-0.005,0,,
$GPGGA,203513.447,3724.933328,N,12204.69612,W,1,38,1.05,6.29,M,-32.95,M,0,*79
$GPFPD,1151,246931.447,0,0,0,3724.933328,12204.69612,-26.655,0.053,-0.024,0.016,0,,
$GPGGA,203514.447,3724.933249,N,12204.69602,W,1,38,0.81,6.47,M,-32.95,M,0,*79
$GPFPD,1151,246932.447,0,0,0,3724.933249,12204.69602,-26.478,0.14,-0.111,0.012,0,,
$GPGGA,203515.447,3724.933025,N,12204.69588,W,1,35,0.92,6.47,M,-32.95,M,0,*70
$GPFPD,1151,246933.447,0,0,0,3724.933025,12204.69588,-26.479,0.191,-0.206,0.023,0,,
$GPGGA,203516.447,3724.932799,N,12204.69562,W,1,35,0.93,6.54,M,-32.95,M,0,*78
$GPFPD,1151,246934.447,0,0,0,3724.932799,12204.69562,-26.414,0.367,-0.36,0.016,0,,
$GPGGA,203517.447,3724.932509,N,12204.69522,W,1,35,0.91,6.91,M,-32.95,M,0,*70
$GPFPD,1151,246935.447,0,0,0,3724.932509,12204.69522,-26.043,0.841,-0.427,0.061,0,,
$GPGGA,203518.447,3724.931839,N,12204.69443,W,1,35,0.84,6.94,M,-32.95,M,0,*7E
$GPFPD,1151,246936.447,0,0,0,3724.931839,12204.69443,-26.005,1.189,-1.158,0.03,0,,
$GPGGA,203519.447,3724.930464,N,12204.69363,W,1,35,1.42,6.62,M,-32.95,M,0,*74
$GPFPD,1151,246937.447,0,0,0,3724.930464,12204.69363,-26.332,1.257,-3.239,-0.074,0,,
$GPGGA,203520.447,3724.927983,N,12204.69307,W,1,34,1.09,6.65,M,-32.95,M,0,*70
$GPFPD,1151,246938.447,0,0,0,3724.927983,12204.69307,-26.304,0.788,-5.09,0.01,0,,
$GPGGA,203521.447,3724.924789,N,12204.69268,W,1,37,1.05,6.69,M,-32.95,M,0,*77
$GPFPD,1151,246939.447,0,0,0,3724.924789,12204.69268,-26.262,0.279,-5.845,-0.058,0,,
$GPGGA,203522.447,3724.921667,N,12204.69255,W,1,34,1.08,6.97,M,-32.95,M,0,*70
$GPFPD,1151,246940.447,0,0,0,3724.921667,12204.69255,-25.985,-0.206,-5.804,0.142,0,,
$GPGGA,203523.447,3724.918396,N,12204.69268,W,1,34,1.72,6.83,M,-32.95,M,0,*75
$GPFPD,1151,246941.447,0,0,0,3724.918397,12204.69268,-26.119,-0.079,-5.659,0.258,0,,
$GPGGA,203524.447,3724.915587,N,12204.69276,W,1,32,1.44,6.9,M,-32.95,M,0,*70
$GPFPD,1151,246942.447,0,0,0,3724.915587,12204.69276,-26.049,-0.091,-5.434,0.091,0,,
$GPGGA,203525.447,3724.912424,N,12204.69281,W,1,34,1.44,7.01,M,-32.95,M,0,*77
$GPFPD,1151,246943.447,0,0,0,3724.912424,12204.69281,-25.945,-0.071,-5.551,0.113,0,,
$GPGGA,203526.447,3724.90941,N,12204.69295,W,1,33,1.09,6.94,M,-32.95,M,0,*7B
$GPFPD,1151,246944.447,0,0,0,3724.90941,12204.69295,-26.007,-0.141,-5.489,0.037,0,,
$GPGGA,203527.447,3724.906432,N,12204.69303,W,1,33,1.27,6.92,M,-32.95,M,0,*7B
$GPFPD,1151,246945.447,0,0,0,3724.906432,12204.69303,-26.031,-0.108,-5.432,-0.006,0,,
$GPGGA,203528.447,3724.903374,N,12204.69291,W,1,34,1.27,7.4,M,-32.95,M,0,*7A
$GPFPD,1151,246946.447,0,0,0,3724.903374,12204.69291,-25.546,0.03,-5.501,0.156,0,,
$GPGGA,203529.447,3724.900317,N,12204.6929,W,1,35,1.8,7.18,M,-32.95,M,0,*73
$GPFPD,1151,246947.447,0,0,0,3724.900317,12204.6929,-25.771,0.06,-5.565,0.144,0,,
$GPGGA,203530.447,3724.896901,N,12204.6928,W,1,36,1.42,7.34,M,-32.95,M,0,*74
$GPFPD,1151,246948.447,0,0,0,3724.896901,12204.6928,-25.607,0.081,-6.14,0.149,0,,
$GPGGA,203531.447,3724.89304,N,12204.69277,W,1,35,0.8,7.71,M,-32.95,M,0,*77
$GPFPD,1151,246949.447,0,0,0,3724.89304,12204.69277,-25.245,0.067,-7.141,0.227,0,,
$GPGGA,203532.447,3724.888872,N,12204.69283,W,1,36,0.94,7.73,M,-32.95,M,0,*71
$GPFPD,1151,246950.447,0,0,0,3724.888872,12204.69283,-25.216,0.009,-7.5,0.143,0,,
$GPGGA,203533.447,3724.884934,N,12204.69286,W,1,37,0.88,7.92,M,-32.95,M,0,*7A
$GPFPD,1151,246951.447,0,0,0,3724.884934,12204.69286,-25.031,-0.038,-7.304,0.164,0,,
$GPGGA,203534.447,3724.880957,N,12204.69294,W,1,34,1.17,7.98,M,-32.95,M,0,*7C
$GPFPD,1151,246952.447,0,0,0,3724.880957,12204.69294,-24.966,-0.054,-7.233,0.15,0,,
$GPGGA,203535.447,3724.877267,N,12204.69305,W,1,34,0.96,8.15,M,-32.95,M,0,*7A
$GPFPD,1151,246953.447,0,0,0,3724.877267,12204.69305,-24.806,-0.064,-6.882,0.154,0,,
$GPGGA,203536.447,3724.873564,N,12204.69311,W,1,34,0.96,8.1,M,-32.95,M,0,*78
$GPFPD,1151,246954.447,0,0,0,3724.873564,12204.69311,-24.855,-0.065,-6.759,0.117,0,,
$GPGGA,203537.447,3724.869883,N,12204.6931,W,1,35,0.87,8.26,M,-32.95,M,0,*71
$GPFPD,1151,246955.447,0,0,0,3724.869883,12204.6931,-24.689,-0.05,-6.622,0.135,0,,
$GPGGA,203538.447,3724.866414,N,12204.69318,W,1,32,1.34,8.64,M,-32.95,M,0,*7A
$GPFPD,1151,246956.447,0,0,0,3724.866414,12204.69318,-24.307,-0.074,-6.385,0.196,0,,
$GPGGA,203539.447,3724.863321,N,12204.69351,W,1,35,1.24,8.61,M,-32.95,M,0,*74
$GPFPD,1151,246957.447,0,0,0,3724.863321,12204.69351,-24.339,-0.178,-5.184,0.174,0,,
$GPGGA,203540.447,3724.860905,N,12204.69368,W,1,36,0.9,8.9,M,-32.95,M,0,*78
$GPFPD,1151,246958.447,0,0,0,3724.860905,12204.69369,-24.049,-0.371,-3.531,0.206,0,,
$GPGGA,203541.447,3724.859453,N,12204.69406,W,1,35,2.09,8.61,M,-32.95,M,0,*77
$GPFPD,1151,246959.447,0,0,0,3724.859453,12204.69406,-24.341,-0.716,-2.423,0.193,0,,
$GPGGA,203542.447,3724.85816,N,12204.69447,W,1,33,1.55,8.52,M,-32.95,M,0,*79
$GPFPD,1151,246960.447,0,0,0,3724.85816,12204.69447,-24.436,-0.533,-2.763,0.14,0,,
$GPGGA,203543.447,3724.855771,N,12204.69443,W,1,33,1.23,8.53,M,-32.95,M,0,*7D
$GPFPD,1151,246961.447,0,0,0,3724.855771,12204.69443,-24.423,-0.013,-4.588,0.092,0,,
$GPGGA,203544.447,3724.852325,N,12204.69456,W,1,33,1.32,8.28,M,-32.95,M,0,*75
$GPFPD,1151,246962.447,0,0,0,3724.852325,12204.69456,-24.672,-0.382,-7.76,-0.073,0,,
$GPGGA,203545.447,3724.84711,N,12204.69516,W,1,35,1.15,7.63,M,-32.95,M,0,*70
$GPFPD,1151,246963.447,0,0,0,3724.84711,12204.69516,-25.326,-1.196,-9.655,-0.714,0,,
$GPGGA,203546.447,3724.84121,N,12204.69652,W,1,35,1.45,4.49,M,-32.95,M,0,*71
$GPFPD,1151,246964.447,0,0,0,3724.84121,12204.69652,-28.461,-2.963,-9.343,-5.184,0,,
$GPGGA,203547.447,3724.835422,N,12204.69831,W,1,38,1.5,-0.57,M,-32.95,M,0,*54
$GPFPD,1151,246965.447,0,0,0,3724.835422,12204.69831,-33.521,-2.949,-11.215,-5.536,0,,
$GPGGA,203548.447,3724.828008,N,12204.69981,W,1,38,1.26,-4.41,M,-32.95,M,0,*5B
$GPFPD,1151,246966.447,0,0,0,3724.828008,12204.69981,-37.367,-2.742,-13.509,-5.127,0,,
$GPGGA,203549.447,3724.82022,N,12204.70155,W,1,38,1.5,-7.91,M,-32.95,M,0,*51
$GPFPD,1151,246967.447,0,0,0,3724.82022,12204.70155,-40.861,-2.795,-12.959,-4.613,0,,
$GPGGA,203550.447,3724.82022,N,12204.70155,W,3,38,2.18,-7.91,M,-32.95,M,0,*54
$GPFPD,1151,246968.447,0,0,0,3724.82022,12204.70155,-40.861,-2.795,-12.959,-4.613,0,,
$GPGGA,203551.447,3724.811116,N,12204.70348,W,1,38,1.49,-9.94,M,-32.95,M,0,*5A
$GPFPD,1151,246969.447,0,0,0,3724.811116,12204.70348,-42.892,-2.634,-14.574,-1.27,0,,
$GPGGA,203552.447,3724.801539,N,12204.7055,W,1,37,3.15,-0.5,M,-32.95,M,0,*52
$GPFPD,1151,246970.447,0,0,0,3724.801539,12204.7055,-33.457,-3.246,-14.782,1.37,0,,
$GPGGA,203553.447,3724.792296,N,12204.70859,W,1,38,1.63,0.41,M,-32.95,M,0,*75
$GPFPD,1151,246971.447,0,0,0,3724.792296,12204.70859,-32.546,-5.597,-13.987,0.995,0,,
$GPGGA,203554.447,3724.78403,N,12204.71451,W,1,39,1.44,1.52,M,-32.95,M,0,*74
$GPFPD,1151,246972.447,0,0,0,3724.78403,12204.71451,-31.432,-9.515,-12.475,1.228,0,,
$GPGGA,203555.447,3724.777215,N,12204.72392,W,1,40,1.2,1.85,M,-32.96,M,0,*7F
$GPFPD,1151,246973.447,0,0,0,3724.777215,12204.72392,-31.106,-12.617,-9.038,0.009,0,,
$GPGGA,203556.447,3724.77189,N,12204.73427,W,1,38,0.89,1.89,M,-32.96,M,0,*74
$GPFPD,1151,246974.447,0,0,0,3724.77189,12204.73427,-31.068,-15.294,-4.598,-0.436,0,,
$GPGGA,203557.447,3724.769735,N,12204.74515,W,1,36,0.9,0.82,M,-32.96,M,0,*71
$GPFPD,1151,246975.447,0,0,0,3724.769735,12204.74515,-32.135,-17.098,-0.214,-2.367,0,,
$GPGGA,203558.447,3724.770033,N,12204.75597,W,1,39,1.05,-0.48,M,-32.96,M,0,*50
$GPFPD,1151,246976.447,0,0,0,3724.770033,12204.75597,-33.439,-17.419,2.637,-0.91,0,,
$GPGGA,203559.447,3724.772312,N,12204.76767,W,1,39,1.13,-0.2,M,-32.96,M,0,*53
$GPFPD,1151,246977.447,0,0,0,3724.772312,12204.76767,-33.156,-17.967,4.546,-0.029,0,,
$GPGGA,203600.447,3724.77552,N,12204.77999,W,1,38,1.21,-1.38,M,-32.96,M,0,*5C
$GPFPD,1151,246978.447,0,0,0,3724.77552,12204.77999,-34.34,-18.724,6.849,-2.973,0,,
$GPGGA,203601.447,3724.779637,N,12204.79283,W,1,40,1.09,-2.66,M,-32.96,M,0,*5B
$GPFPD,1151,246979.447,0,0,0,3724.779637,12204.79283,-35.613,-18.874,8.665,-0.422,0,,
$GPGGA,203602.447,3724.779637,N,12204.79283,W,3,39,3.04,-2.66,M,-32.96,M,0,*5B
$GPFPD,1151,246980.447,0,0,0,3724.779637,12204.79283,-35.613,-18.874,8.665,-0.422,0,,
$GPGGA,203603.447,3724.784998,N,12204.80662,W,1,38,3.82,-0.47,M,-32.96,M,0,*54
$GPFPD,1151,246981.447,0,0,0,3724.784998,12204.80662,-33.43,-20.787,12.162,0.015,0,,
$GPGGA,203604.447,3724.792227,N,12204.82127,W,1,39,3.82,0.19,M,-32.96,M,0,*72
$GPFPD,1151,246982.447,0,0,0,3724.792227,12204.82127,-32.767,-20.842,12.959,1.653,0,,
$GPGGA,203605.447,3724.792227,N,12204.82127,W,3,38,3.13,0.19,M,-32.96,M,0,*78
$GPFPD,1151,246983.447,0,0,0,3724.792227,12204.82127,-32.767,-20.842,12.959,1.653,0,,
$GPGGA,203606.447,3724.799081,N,12204.83568,W,1,39,10.72,0.54,M,-32.96,M,0,*46
$GPFPD,1151,246984.447,0,0,0,3724.799081,12204.83568,-32.423,-19.985,12.99,1.084,0,,
$GPGGA,203607.447,3724.807174,N,12204.85015,W,1,31,38.1,-1.84,M,-32.96,M,0,*69
$GPFPD,1151,246985.447,0,0,0,3724.807174,12204.85015,-34.804,-18.268,14.564,-5.806,0,,
$GPGGA,203608.447,3724.807174,N,12204.85015,W,3,34,6.54,-1.84,M,-32.96,M,0,*5C
$GPFPD,1151,246986.447,0,0,0,3724.807174,12204.85015,-34.804,-18.268,14.564,-5.806,0,,
$GPGGA,203609.447,3724.815474,N,12204.86341,W,1,34,31.35,-3.16,M,-32.96,M,0,*65
$GPFPD,1151,246987.447,0,0,0,3724.815474,12204.86341,-36.117,-15.758,14.835,-2.956,0,,
$GPGGA,203610.447,3724.824629,N,12204.87498,W,1,34,11,-2.87,M,-32.96,M,0,*64
$GPFPD,1151,246988.447,0,0,0,3724.824629,12204.87498,-35.832,-14.668,15.318,-7.547,0,,
$GPGGA,203611.447,3724.833285,N,12204.88664,W,1,37,32.91,-1.89,M,-32.96,M,0,*66
$GPFPD,1151,246989.447,0,0,0,3724.833285,12204.88664,-34.853,-16.451,15.641,1.795,0,,
$GPGGA,203612.447,3724.833285,N,12204.88664,W,3,40,10.76,-1.89,M,-32.96,M,0,*6E
$GPFPD,1151,246990.447,0,0,0,3724.833285,12204.88664,-34.853,-16.451,15.641,1.795,0,,
$GPGGA,203613.447,3724.841338,N,12204.89903,W,1,38,80.07,-1.17,M,-32.96,M,0,*65
$GPFPD,1151,246991.447,0,0,0,3724.841338,12204.89903,-34.127,-18.231,13.574,0.937,0,,
$GPGGA,203614.447,3724.848237,N,12204.91228,W,1,37,92.21,-1.17,M,-32.96,M,0,*67
$GPFPD,1151,246992.447,0,0,0,3724.848237,12204.91228,-34.133,-18.461,12.424,0.236,0,,
$GPGGA,203615.447,3724.854839,N,12204.92396,W,1,39,24.15,-2.2,M,-32.96,M,0,*6B
$GPFPD,1151,246993.447,0,0,0,3724.854839,12204.92396,-35.166,-16.936,11.843,-1.753,0,,
$GPGGA,203616.447,3724.861686,N,12204.93693,W,1,39,24.5,-1.9,M,-32.96,M,0,*64
$GPFPD,1151,246994.447,0,0,0,3724.861686,12204.93693,-34.863,-20.351,10.865,1.429,0,,
$GPGGA,203617.447,3724.863062,N,12204.93812,W,1,40,23.83,-2.72,M,-32.96,M,0,*6F
$GPFPD,1151,246995.447,0,0,0,3724.863062,12204.93812,-35.68,2.081,0.808,-9.081,0,,
$GPGGA,203618.447,3724.873489,N,12204.98109,W,1,39,18.07,-2.16,M,-32.96,M,0,*6A
$GPFPD,1151,246996.447,0,0,0,3724.873489,12204.98109,-35.127,-40.366,29.9,3.406,0,,
$GPGGA,203619.447,3724.873489,N,12204.98109,W,3,33,3.98,-2.16,M,-32.96,M,0,*5F
$GPFPD,1151,246997.447,0,0,0,3724.873489,12204.98109,-35.127,-40.366,29.9,3.406,0,,
$GPGGA,203620.447,3724.87433,N,12204.99437,W,1,33,67.33,-1.95,M,-32.96,M,0,*64
$GPFPD,1151,246998.447,0,0,0,3724.87433,12204.99437,-34.916,-17.803,11.607,0.397,0,,
$GPGGA,203621.447,3724.916837,N,12205.05207,W,1,39,2.14,-2.69,M,-32.96,M,0,*5B
$GPFPD,1151,246999.447,0,0,0,3724.916837,12205.05207,-35.657,-21.946,20.021,-10.124,0,,
$GPGGA,203622.447,3724.928633,N,12205.06778,W,1,39,1.78,-3.82,M,-32.96,M,0,*56
$GPFPD,1151,247000.447,0,0,0,3724.928633,12205.06778,-36.789,-20.549,17.244,-0.101,0,,
$GPGGA,203623.447,3724.93935,N,12205.08311,W,1,36,1.44,1.98,M,-32.96,M,0,*7F
$GPFPD,1151,247001.447,0,0,0,3724.93935,12205.08311,-30.99,-20.775,17.736,0.092,0,,
$GPGGA,203624.447,3724.949564,N,12205.09838,W,1,36,0.87,5.42,M,-32.97,M,0,*70
$GPFPD,1151,247002.447,0,0,0,3724.949564,12205.09838,-27.548,-21.111,18.186,-0.327,0,,
$GPGGA,203625.447,3724.959573,N,12205.11318,W,1,33,1.05,5.97,M,-32.97,M,0,*76
$GPFPD,1151,247003.447,0,0,0,3724.959573,12205.11318,-26.994,-21.435,18.69,0.058,0,,
$GPGGA,203626.447,3724.970187,N,12205.12815,W,1,38,1.05,7.3,M,-32.97,M,0,*7A
$GPFPD,1151,247004.447,0,0,0,3724.970187,12205.12815,-25.663,-21.589,19.095,-0.324,0,,
$GPGGA,203627.447,3724.980422,N,12205.14292,W,1,34,1.04,7.74,M,-32.97,M,0,*78
$GPFPD,1151,247005.447,0,0,0,3724.980422,12205.14292,-25.226,-21.932,19.394,-0.404,0,,
$GPGGA,203628.447,3724.991312,N,12205.15793,W,1,34,0.92,8.27,M,-32.97,M,0,*72
$GPFPD,1151,247006.447,0,0,0,3724.991312,12205.15793,-24.701,-21.978,19.816,-0.043,0,,
$GPGGA,203629.447,3725.002158,N,12205.17305,W,1,34,1.05,8.31,M,-32.97,M,0,*78
$GPFPD,1151,247007.447,0,0,0,3725.002158,12205.17305,-24.654,-22.508,20.044,-1.069,0,,
$GPGGA,203630.447,3725.013135,N,12205.18846,W,1,36,1.81,7.4,M,-32.97,M,0,*7A
$GPFPD,1151,247008.447,0,0,0,3725.013135,12205.18846,-25.569,-22.664,20.256,-1.38,0,,
$GPGGA,203631.447,3725.024367,N,12205.20435,W,1,32,1.02,7.62,M,-32.97,M,0,*78
$GPFPD,1151,247009.447,0,0,0,3725.024367,12205.20435,-25.349,-23.341,20.922,0.031,0,,
$GPGGA,203632.447,3725.035841,N,12205.22031,W,1,32,1.02,7.62,M,-32.97,M,0,*70
$GPFPD,1151,247010.447,0,0,0,3725.035841,12205.22031,-25.345,-23.468,21.108,-0.28,0,,
$GPGGA,203633.447,3725.047314,N,12205.23627,W,1,32,1.23,7.83,M,-32.97,M,0,*7E
$GPFPD,1151,247011.447,0,0,0,3725.047314,12205.23627,-25.136,-23.576,21.412,-0.536,0,,
$GPGGA,203634.447,3725.059007,N,12205.25231,W,1,29,1.48,7.4,M,-32.97,M,0,*72
$GPFPD,1151,247012.447,0,0,0,3725.059007,12205.25231,-25.57,-23.662,21.701,-0.376,0,,
$GPGGA,203635.447,3725.070862,N,12205.26852,W,1,36,1.01,7.36,M,-32.97,M,0,*7E
$GPFPD,1151,247013.447,0,0,0,3725.070862,12205.26852,-25.604,-23.823,21.762,-0.12,0,,
$GPGGA,203636.447,3725.082578,N,12205.28459,W,1,32,1.02,7.13,M,-32.97,M,0,*73
$GPFPD,1151,247014.447,0,0,0,3725.082578,12205.28459,-25.839,-23.695,21.689,-0.367,0,,
$GPGGA,203637.447,3725.094241,N,12205.3006,W,1,34,1.02,6.88,M,-32.97,M,0,*7B
$GPFPD,1151,247015.447,0,0,0,3725.094241,12205.3006,-26.093,-23.489,21.386,-0.292,0,,
$GPGGA,203638.447,3725.105584,N,12205.31641,W,1,33,0.91,6.54,M,-32.97,M,0,*70
$GPFPD,1151,247016.447,0,0,0,3725.105584,12205.31641,-26.427,-23.376,20.847,-0.353,0,,
$GPGGA,203639.447,3725.116787,N,12205.33207,W,1,36,0.81,6.08,M,-32.97,M,0,*7B
$GPFPD,1151,247017.447,0,0,0,3725.116787,12205.33207,-26.887,-22.933,20.843,-0.419,0,,
$GPGGA,203640.447,3725.127881,N,12205.34764,W,1,37,0.74,5.69,M,-32.97,M,0,*7D
$GPFPD,1151,247018.447,0,0,0,3725.127881,12205.34764,-27.282,-22.855,20.649,-0.381,0,,
$GPGGA,203641.447,3725.138972,N,12205.36293,W,1,37,0.8,5.53,M,-32.97,M,0,*7D
$GPFPD,1151,247019.447,0,0,0,3725.138972,12205.36293,-27.438,-22.527,20.281,-0.319,0,,
$GPGGA,203642.447,3725.14994,N,12205.37822,W,1,35,0.83,5.05,M,-32.97,M,0,*7A
$GPFPD,1151,247020.447,0,0,0,3725.14994,12205.37822,-27.916,-22.411,19.971,-0.37,0,,
$GPGGA,203643.447,3725.160758,N,12205.39318,W,1,36,0.91,4.99,M,-32.97,M,0,*70
$GPFPD,1151,247021.447,0,0,0,3725.160758,12205.39318,-27.984,-21.9,19.862,-0.25,0,,
$GPGGA,203644.447,3725.171409,N,12205.4079,W,1,38,0.91,4.82,M,-32.97,M,0,*7D
$GPFPD,1151,247022.447,0,0,0,3725.171409,12205.4079,-28.154,-21.568,19.511,-0.231,0,,
$GPGGA,203645.447,3725.181786,N,12205.42227,W,1,35,0.83,4.85,M,-32.97,M,0,*7E
$GPFPD,1151,247023.447,0,0,0,3725.181786,12205.42227,-28.126,-21.089,19.242,-0.156,0,,
$GPGGA,203646.447,3725.192179,N,12205.43647,W,1,38,1.03,4.81,M,-32.97,M,0,*7A
$GPFPD,1151,247024.447,0,0,0,3725.192179,12205.43647,-28.158,-20.81,19.062,-0.135,0,,
$GPGGA,203647.447,3725.202436,N,12205.45041,W,1,31,0.9,4.7,M,-32.97,M,0,*7C
$GPFPD,1151,247025.447,0,0,0,3725.202437,12205.45041,-28.276,-20.616,18.7,-0.13,0,,
$GPGGA,203648.447,3725.212413,N,12205.46425,W,1,37,0.79,4.39,M,-32.97,M,0,*7D
$GPFPD,1151,247026.447,0,0,0,3725.212413,12205.46425,-28.584,-20.562,18.094,-0.202,0,,
$GPGGA,203649.447,3725.222177,N,12205.47799,W,1,38,0.79,4.25,M,-32.97,M,0,*72
$GPFPD,1151,247027.447,0,0,0,3725.222177,12205.47799,-28.726,-20.298,18.004,-0.23,0,,
$GPGGA,203650.447,3725.232018,N,12205.49165,W,1,37,0.88,4,M,-32.97,M,0,*7A
$GPFPD,1151,247028.447,0,0,0,3725.232018,12205.49165,-28.968,-20.02,18.021,-0.272,0,,
$GPGGA,203651.447,3725.241918,N,12205.5053,W,1,35,0.86,4.11,M,-32.97,M,0,*7E
$GPFPD,1151,247029.447,0,0,0,3725.241918,12205.5053,-28.865,-20.117,18.21,-0.2,0,,
$GPGGA,203652.447,3725.25173,N,12205.5189,W,1,35,0.83,3.9,M,-32.97,M,0,*73
$GPFPD,1151,247030.447,0,0,0,3725.251731,12205.5189,-29.076,-20.093,17.983,-0.249,0,,
$GPGGA,203653.447,3725.261273,N,12205.53221,W,1,33,1.08,3.47,M,-32.97,M,0,*74
$GPFPD,1151,247031.447,0,0,0,3725.261273,12205.53221,-29.506,-19.735,17.627,-0.312,0,,
$GPGGA,203654.447,3725.270289,N,12205.54497,W,1,27,1.15,2.88,M,-32.97,M,0,*71
$GPFPD,1151,247032.447,0,0,0,3725.270289,12205.54497,-30.098,-17.855,15.607,-0.427,0,,
$GPGGA,203655.447,3725.278755,N,12205.5564,W,1,27,1.15,2.7,M,-32.97,M,0,*7B
$GPFPD,1151,247033.447,0,0,0,3725.278755,12205.5564,-30.272,-16.245,15.031,-0.323,0,,
$GPGGA,203656.447,3725.286982,N,12205.56635,W,1,31,1.99,3.55,M,-32.97,M,0,*72
$GPFPD,1151,247034.447,0,0,0,3725.286982,12205.56635,-29.428,-14.616,14.361,0.062,0,,
$GPGGA,203657.447,3725.29473,N,12205.57504,W,1,41,1.14,0.89,M,-32.97,M,0,*74
$GPFPD,1151,247035.447,0,0,0,3725.29473,12205.57504,-32.084,-12.852,15.272,-4.452,0,,
$GPGGA,203658.447,3725.303268,N,12205.58271,W,1,40,1.34,-3.78,M,-32.97,M,0,*55
$GPFPD,1151,247036.447,0,0,0,3725.303268,12205.58271,-36.758,-9.097,16.028,-6.899,0,,
$GPGGA,203659.447,3725.31169,N,12205.58614,W,1,38,0.95,-6.04,M,-32.97,M,0,*5D
$GPFPD,1151,247037.447,0,0,0,3725.31169,12205.58614,-39.011,-2.799,14.688,0.014,0,,
$GPGGA,203700.447,3725.319355,N,12205.58509,W,1,41,0.76,-1.46,M,-32.97,M,0,*5E
$GPFPD,1151,247038.447,0,0,0,3725.319355,12205.58509,-34.439,2.266,13.134,0.049,0,,
$GPGGA,203701.447,3725.326083,N,12205.58239,W,1,40,1.06,-1.32,M,-32.97,M,0,*5F
$GPFPD,1151,247039.447,0,0,0,3725.326083,12205.58239,-34.291,5.19,12.422,-0.125,0,,
$GPGGA,203702.447,3725.331799,N,12205.57677,W,1,39,1.02,0.25,M,-32.97,M,0,*79
$GPFPD,1151,247040.447,0,0,0,3725.331799,12205.57677,-32.726,9.365,8.825,0.345,0,,
$GPGGA,203703.447,3725.335826,N,12205.56848,W,1,37,1.01,1.08,M,-32.97,M,0,*72
$GPFPD,1151,247041.447,0,0,0,3725.335826,12205.56848,-31.89,12.229,6.202,-0.232,0,,
$GPGGA,203704.447,3725.338214,N,12205.55965,W,1,39,0.95,1.55,M,-32.97,M,0,*75
$GPFPD,1151,247042.447,0,0,0,3725.338214,12205.55965,-31.423,13.895,1.337,0.205,0,,
$GPGGA,203705.447,3725.337536,N,12205.55041,W,1,39,0.9,2.57,M,-32.97,M,0,*77
$GPFPD,1151,247043.447,0,0,0,3725.337536,12205.55041,-30.404,12.72,-3.041,0.782,0,,
$GPGGA,203706.447,3725.336192,N,12205.5426,W,1,39,1.32,2.01,M,-32.97,M,0,*79
$GPFPD,1151,247044.447,0,0,0,3725.336192,12205.5426,-30.96,9.363,-2.488,-2.79,0,,
$GPGGA,203707.447,3725.332158,N,12205.53629,W,1,41,3.45,-0.88,M,-32.97,M,0,*5F
$GPFPD,1151,247045.447,0,0,0,3725.332158,12205.53629,-33.853,9.218,-6.733,-11.706,0,,
$GPGGA,203708.447,3725.326138,N,12205.53115,W,1,40,1.82,-1.02,M,-32.97,M,0,*5E
$GPFPD,1151,247046.447,0,0,0,3725.326138,12205.53115,-33.996,7.175,-7.706,-12.822,0,,
$GPGGA,203709.447,3725.321028,N,12205.52763,W,1,37,1.89,-12.68,M,-32.97,M,0,*61
$GPFPD,1151,247047.447,0,0,0,3725.321028,12205.52763,-45.655,3.471,-8.164,-11.139,0,,
$GPGGA,203710.447,3725.315771,N,12205.52685,W,1,37,3.45,-6.62,M,-32.97,M,0,*5E
$GPFPD,1151,247048.447,0,0,0,3725.315771,12205.52685,-39.591,0.946,-8.398,-6.971,0,,
$GPGGA,203711.447,3725.311031,N,12205.52908,W,1,38,1.19,-2.66,M,-32.97,M,0,*5A
$GPFPD,1151,247049.447,0,0,0,3725.311031,12205.52908,-35.634,-2.141,-9.271,-2.243,0,,
$GPGGA,203712.447,3725.305205,N,12205.53139,W,1,41,1.6,-3.15,M,-32.97,M,0,*5E
$GPFPD,1151,247050.447,0,0,0,3725.305205,12205.53139,-36.121,-3.164,-10.955,-1.99,0,,
$GPGGA,203713.447,3725.29832,N,12205.5332,W,1,41,2,-2.55,M,-32.97,M,0,*5D
$GPFPD,1151,247051.447,0,0,0,3725.29832,12205.5332,-35.518,-3.308,-11.783,-4.538,0,,
$GPGGA,203714.447,3725.291261,N,12205.53579,W,1,42,1.87,-5.95,M,-32.97,M,0,*55
$GPFPD,1151,247052.447,0,0,0,3725.291261,12205.53579,-38.924,-4.578,-13.051,-3.985,0,,
$GPGGA,203715.447,3725.283037,N,12205.5395,W,1,41,3.02,-4.14,M,-32.97,M,0,*53
$GPFPD,1151,247053.447,0,0,0,3725.283037,12205.5395,-37.116,-5.853,-16.209,0.256,0,,
$GPGGA,203716.447,3725.272539,N,12205.54419,W,1,39,1.19,-2.73,M,-32.97,M,0,*58
$GPFPD,1151,247054.447,0,0,0,3725.272539,12205.54419,-35.699,-7.049,-17.185,0.006,0,,
$GPGGA,203717.447,3725.262533,N,12205.54888,W,1,39,0.88,-1.72,M,-32.97,M,0,*52
$GPFPD,1151,247055.447,0,0,0,3725.262533,12205.54888,-34.69,-7.02,-16.949,-0.265,0,,
$GPGGA,203718.447,3725.253935,N,12205.55347,W,1,32,1.69,-3.85,M,-32.97,M,0,*55
$GPFPD,1151,247056.447,0,0,0,3725.253935,12205.55347,-36.824,-6.927,-15.719,0.001,0,,
$GPGGA,203719.447,3725.245578,N,12205.5578,W,1,40,1.29,-4.85,M,-32.98,M,0,*52
$GPFPD,1151,247057.447,0,0,0,3725.245578,12205.5578,-37.83,-6.673,-12.696,-1.832,0,,
$GPGGA,203720.447,3725.238842,N,12205.56139,W,1,41,1.29,-7.07,M,-32.98,M,0,*5F
$GPFPD,1151,247058.447,0,0,0,3725.238842,12205.56139,-40.05,-4.952,-10.486,-3.771,0,,
$GPGGA,203721.447,3725.233031,N,12205.56428,W,1,39,1.58,-11.12,M,-32.98,M,0,*64
$GPFPD,1151,247059.447,0,0,0,3725.233031,12205.56428,-44.099,-3.844,-8.159,-5.672,0,,
$GPGGA,203722.447,3725.228868,N,12205.56661,W,1,40,1.28,-12.69,M,-32.98,M,0,*6C
$GPFPD,1151,247060.447,0,0,0,3725.228869,12205.56661,-45.662,-2.552,-6.702,-1.487,0,,
$GPGGA,203723.447,3725.225693,N,12205.5683,W,1,38,1.52,-6.36,M,-32.98,M,0,*5E
$GPFPD,1151,247061.447,0,0,0,3725.225693,12205.5683,-39.339,-2.328,-3.142,-4.464,0,,
$GPGGA,203724.447,3725.222388,N,12205.56923,W,1,38,1.57,-7.13,M,-32.98,M,0,*52
$GPFPD,1151,247062.447,0,0,0,3725.222388,12205.56923,-40.106,-1.532,-3.354,-7.306,0,,
$GPGGA,203725.447,3725.220015,N,12205.57009,W,1,37,1.13,-10.3,M,-32.98,M,0,*6D
$GPFPD,1151,247063.447,0,0,0,3725.220015,12205.57009,-43.273,-0.949,-3.337,-0.382,0,,
$GPGGA,203726.447,3725.218619,N,12205.57019,W,1,38,1.22,-6.64,M,-32.98,M,0,*55
$GPFPD,1151,247064.447,0,0,0,3725.218619,12205.57019,-39.613,-0.003,-2.6,-0.977,0,,
$GPGGA,203727.447,3725.218102,N,12205.57042,W,1,36,1.36,-5,M,-32.98,M,0,*53
$GPFPD,1151,247065.447,0,0,0,3725.218102,12205.57042,-37.981,-0.237,-0.604,-0.422,0,,
$GPGGA,203728.447,3725.218079,N,12205.57061,W,1,38,1.39,-3.92,M,-32.98,M,0,*50
$GPFPD,1151,247066.447,0,0,0,3725.218079,12205.57061,-36.892,-0.053,-0.13,-0.151,0,,
$GPGGA,203729.447,3725.217828,N,12205.57056,W,1,36,1.61,-2.45,M,-32.98,M,0,*5D
$GPFPD,1151,247067.447,0,0,0,3725.217828,12205.57056,-35.431,-0.267,-0.797,0.045,0,,
$GPGGA,203730.447,3725.216845,N,12205.5708,W,1,39,0.95,-1.62,M,-32.98,M,0,*5D
$GPFPD,1151,247068.447,0,0,0,3725.216845,12205.5708,-34.595,-0.538,-1.513,0.024,0,,
$GPGGA,203731.447,3725.216118,N,12205.57116,W,1,39,1.16,-0.81,M,-32.98,M,0,*52
$GPFPD,1151,247069.447,0,0,0,3725.216118,12205.57116,-33.785,-0.668,-1.439,-0.057,0,,
$GPGGA,203732.447,3725.215473,N,12205.57148,W,1,39,0.83,0.22,M,-32.98,M,0,*71
$GPFPD,1151,247070.447,0,0,0,3725.215473,12205.57148,-32.754,-0.514,-1.353,-0.044,0,,
$GPGGA,203733.447,3725.214779,N,12205.57181,W,1,38,0.73,1.08,M,-32.98,M,0,*77
$GPFPD,1151,247071.447,0,0,0,3725.214779,12205.57181,-31.893,-0.245,-1.172,0.007,0,,
$GPGGA,203734.447,3725.214284,N,12205.572,W,1,38,0.77,1.07,M,-32.98,M,0,*78
$GPFPD,1151,247072.447,0,0,0,3725.214284,12205.572,-31.912,-0.308,-0.638,-0.039,0,,
$GPGGA,203735.447,3725.214014,N,12205.57203,W,1,38,0.77,1.32,M,-32.98,M,0,*75
$GPFPD,1151,247073.447,0,0,0,3725.214014,12205.57203,-31.659,-0.165,-0.248,-0.025,0,,
$GPGGA,203736.447,3725.213864,N,12205.57203,W,1,40,0.72,1.64,M,-32.98,M,0,*70
$GPFPD,1151,247074.447,0,0,0,3725.213864,12205.57203,-31.341,0.136,-0.259,0.011,0,,
$GPGGA,203737.447,3725.213814,N,12205.57189,W,1,39,0.78,1.63,M,-32.98,M,0,*7D
$GPFPD,1151,247075.447,0,0,0,3725.213814,12205.57189,-31.346,0.052,-0.171,0.048,0,,
$GPGGA,203738.447,3725.213857,N,12205.57193,W,1,40,0.74,1.79,M,-32.98,M,0,*75
$GPFPD,1151,247076.447,0,0,0,3725.213858,12205.57193,-31.188,-0.067,0.029,-0.058,0,,
$GPGGA,203739.447,3725.213891,N,12205.57192,W,1,38,1.15,2.3,M,-32.98,M,0,*77
$GPFPD,1151,247077.447,0,0,0,3725.213891,12205.57192,-30.673,-0.017,0.053,-0.14,0,,
$GPGGA,203740.447,3725.213929,N,12205.5719,W,1,40,1.27,2.44,M,-32.98,M,0,*74
$GPFPD,1151,247078.447,0,0,0,3725.213929,12205.5719,-30.533,-0.024,0.007,-0.089,0,,
$GPGGA,203741.447,3725.213953,N,12205.57194,W,1,38,1.29,2.56,M,-32.98,M,0,*7A
$GPFPD,1151,247079.447,0,0,0,3725.213953,12205.57194,-30.419,-0.021,0,-0.059,0,,
$GPGGA,203742.447,3725.213933,N,12205.5719,W,1,38,0.91,2.87,M,-32.98,M,0,*7A
$GPFPD,1151,247080.447,0,0,0,3725.213933,12205.5719,-30.102,-0.004,-0.005,0.005,0,,
$GPGGA,203743.447,3725.213831,N,12205.57186,W,1,37,0.8,3.22,M,-32.98,M,0,*7D
$GPFPD,1151,247081.447,0,0,0,3725.213831,12205.57186,-29.761,-0.01,-0.014,0.01,0,,
$GPGGA,203744.447,3725.213795,N,12205.57177,W,1,40,0.79,3.53,M,-32.98,M,0,*75
$GPFPD,1151,247082.447,0,0,0,3725.213795,12205.57177,-29.45,0.004,-0.042,0.069,0,,
$GPGGA,203745.447,3725.213869,N,12205.5718,W,1,40,0.78,3.75,M,-32.98,M,0,*72
$GPFPD,1151,247083.447,0,0,0,3725.213869,12205.5718,-29.223,-0.005,-0.025,0.051,0,,
$GPGGA,203746.447,3725.213845,N,12205.57183,W,1,41,0.71,3.99,M,-32.98,M,0,*7A
$GPFPD,1151,247084.447,0,0,0,3725.213845,12205.57183,-28.989,-0.031,-0.027,0.022,0,,
$GPGGA,203747.447,3725.213574,N,12205.57191,W,1,39,1.09,4.22,M,-32.98,M,0,*73
$GPFPD,1151,247085.447,0,0,0,3725.213574,12205.57191,-28.758,-0.15,-0.199,0.003,0,,
$GPGGA,203748.447,3725.213241,N,12205.57222,W,1,33,1.66,3.38,M,-32.98,M,0,*73
$GPFPD,1151,247086.447,0,0,0,3725.213241,12205.57222,-29.599,-0.618,-1.293,-0.056,0,,
$GPGGA,203749.447,3725.212109,N,12205.57279,W,1,39,0.89,3.44,M,-32.98,M,0,*7D
$GPFPD,1151,247087.447,0,0,0,3725.212109,12205.57279,-29.535,-0.91,-2.759,0.008,0,,
$GPGGA,203750.447,3725.210265,N,12205.5736,W,1,40,0.8,3.51,M,-32.98,M,0,*7E
$GPFPD,1151,247088.447,0,0,0,3725.210266,12205.5736,-29.464,-1.328,-4.298,0.051,0,,
$GPGGA,203751.447,3725.207539,N,12205.57476,W,1,40,0.77,3.59,M,-32.98,M,0,*7D
$GPFPD,1151,247089.447,0,0,0,3725.207539,12205.57476,-29.39,-2.192,-5.721,0.042,0,,
$GPGGA,203752.447,3725.204032,N,12205.57642,W,1,39,0.88,3.3,M,-32.98,M,0,*72
$GPFPD,1151,247090.447,0,0,0,3725.204032,12205.57642,-29.675,-2.845,-6.849,-0.074,0,,
$GPGGA,203753.447,3725.199727,N,12205.57851,W,1,39,0.89,2.96,M,-32.98,M,0,*74
$GPFPD,1151,247091.447,0,0,0,3725.199727,12205.57851,-30.021,-2.897,-7.259,-0.31,0,,
$GPGGA,203754.447,3725.195856,N,12205.58047,W,1,40,1.04,2.72,M,-32.98,M,0,*77
$GPFPD,1151,247092.447,0,0,0,3725.195856,12205.58047,-30.253,-2.818,-6.77,-0.323,0,,
$GPGGA,203755.447,3725.192359,N,12205.5823,W,1,41,0.92,2.46,M,-32.98,M,0,*71
$GPFPD,1151,247093.447,0,0,0,3725.19236,12205.5823,-30.517,-2.521,-5.813,-0.351,0,,
$GPGGA,203756.447,3725.189519,N,12205.58376,W,1,41,0.71,2.14,M,-32.98,M,0,*71
$GPFPD,1151,247094.447,0,0,0,3725.189519,12205.58376,-30.835,-1.668,-4.692,-0.388,0,,
$GPGGA,203757.447,3725.187452,N,12205.58476,W,1,41,0.74,1.95,M,-32.98,M,0,*7A
$GPFPD,1151,247095.447,0,0,0,3725.187452,12205.58476,-31.033,-1.44,-3.438,-0.331,0,,
$GPGGA,203758.447,3725.185868,N,12205.58556,W,1,41,0.67,1.75,M,-32.98,M,0,*7E
$GPFPD,1151,247096.447,0,0,0,3725.185868,12205.58556,-31.224,-0.899,-2.193,-0.283,0,,
$GPGGA,203759.447,3725.185254,N,12205.586,W,1,33,1.1,1.71,M,-32.98,M,0,*7B
$GPFPD,1151,247097.447,0,0,0,3725.185254,12205.586,-31.268,-0.542,-1.138,-0.241,0,,
$GPGGA,203800.447,3725.184904,N,12205.58615,W,1,39,0.77,1.58,M,-32.98,M,0,*7A
$GPFPD,1151,247098.447,0,0,0,3725.184904,12205.58615,-31.402,-0.196,-0.157,-0.235,0,,
$GPGGA,203801.447,3725.184812,N,12205.58628,W,1,37,0.73,1.42,M,-32.98,M,0,*78
$GPFPD,1151,247099.447,0,0,0,3725.184812,12205.58628,-31.554,-0.123,0.13,-0.236,0,,
$GPGGA,203802.447,3725.184854,N,12205.58628,W,1,37,0.77,1.33,M,-32.98,M,0,*7F
$GPFPD,1151,247100.447,0,0,0,3725.184854,12205.58628,-31.646,-0.09,0.05,-0.214,0,,
$GPGGA,203803.447,3725.184991,N,12205.5862,W,1,33,0.84,1.35,M,-32.98,M,0,*71
$GPFPD,1151,247101.447,0,0,0,3725.184991,12205.5862,-31.624,-0.064,0.056,-0.186,0,,
$GPGGA,203804.447,3725.185127,N,12205.58613,W,1,37,0.77,1.4,M,-32.98,M,0,*7E
$GPFPD,1151,247102.447,0,0,0,3725.185127,12205.58613,-31.574,-0.051,0.042,-0.154,0,,
$GPGGA,203805.447,3725.185288,N,12205.58623,W,1,39,0.86,1.49,M,-32.98,M,0,*73
$GPFPD,1151,247103.447,0,0,0,3725.185288,12205.58623,-31.49,-0.053,0.038,-0.123,0,,
$GPGGA,203806.447,3725.185161,N,12205.58614,W,1,38,0.7,1.6,M,-32.98,M,0,*78
$GPFPD,1151,247104.447,0,0,0,3725.185161,12205.58614,-31.381,-0.037,0.025,-0.077,0,,
$GPGGA,203807.447,3725.185155,N,12205.58609,W,1,38,0.71,1.66,M,-32.98,M,0,*76
$GPFPD,1151,247105.447,0,0,0,3725.185155,12205.58609,-31.318,-0.038,0.018,-0.063,0,,
$GPGGA,203808.447,3725.185103,N,12205.58599,W,1,39,0.77,1.82,M,-32.98,M,0,*77
$GPFPD,1151,247106.447,0,0,0,3725.185103,12205.58599,-31.163,-0.029,0.015,-0.043,0,,
$GPGGA,203809.447,3725.184997,N,12205.5859,W,1,39,0.7,1.84,M,-32.98,M,0,*7C
$GPFPD,1151,247107.447,0,0,0,3725.184997,12205.5859,-31.138,-0.023,0.005,-0.03,0,,
$GPGGA,203810.447,3725.184786,N,12205.58578,W,1,39,0.72,1.99,M,-32.98,M,0,*73
$GPFPD,1151,247108.447,0,0,0,3725.184786,12205.58578,-30.987,-0.019,-0.005,-0.017,0,,
$GPGGA,203811.447,3725.184762,N,12205.58572,W,1,39,0.78,2.1,M,-32.98,M,0,*7F
$GPFPD,1151,247109.447,0,0,0,3725.184763,12205.58572,-30.88,-0.014,-0.005,-0.006,0,,
$GPGGA,203812.447,3725.184789,N,12205.58575,W,1,40,0.83,2.15,M,-32.98,M,0,*7D
$GPFPD,1151,247110.447,0,0,0,3725.184789,12205.58575,-30.829,-0.015,-0.007,-0.002,0,,
$GPGGA,203813.447,3725.185276,N,12205.58609,W,1,39,1.42,-0.42,M,-32.98,M,0,*5B
$GPFPD,1151,247111.447,0,0,0,3725.185276,12205.58609,-33.402,-0.711,1.451,-3.794,0,,
$GPGGA,203814.447,3725.185859,N,12205.58642,W,1,39,1.26,-4.29,M,-32.98,M,0,*59
$GPFPD,1151,247112.447,0,0,0,3725.185859,12205.58642,-37.266,-0.553,0.763,-5.004,0,,
$GPGGA,203815.447,3725.18665,N,12205.58679,W,1,38,1.41,-7.24,M,-32.98,M,0,*57
$GPFPD,1151,247113.447,0,0,0,3725.18665,12205.58679,-40.22,-0.817,1.634,-4.346,0,,
$GPGGA,203816.447,3725.187328,N,12205.58717,W,1,39,1.43,-10.66,M,-32.98,M,0,*6A
$GPFPD,1151,247114.447,0,0,0,3725.187328,12205.58717,-43.633,-0.615,1.422,-4.774,0,,
$GPGGA,203817.447,3725.187596,N,12205.58719,W,1,39,1.48,-3.48,M,-32.98,M,0,*5F
$GPFPD,1151,247115.447,0,0,0,3725.187596,12205.58719,-36.457,-0.368,1.02,-4.594,0,,
$GPGGA,203818.447,3725.187951,N,12205.58728,W,1,41,1.46,-5.18,M,-32.98,M,0,*5A
$GPFPD,1151,247116.447,0,0,0,3725.187951,12205.58728,-38.162,-0.484,0.691,-4.81,0,,
$GPGGA,203819.447,3725.188103,N,12205.58741,W,1,39,1.42,-9.9,M,-32.98,M,0,*51
$GPFPD,1151,247117.447,0,0,0,3725.188103,12205.58741,-42.878,-0.486,0.73,-4.807,0,,
$GPGGA,203820.447,3725.18838,N,12205.5877,W,1,40,1.5,-14.85,M,-32.98,M,0,*64
$GPFPD,1151,247118.447,0,0,0,3725.18838,12205.5877,-47.828,-0.638,0.783,-4.981,0,,
$GPGGA,203821.447,3725.188621,N,12205.58791,W,2,39,2.19,-13.65,M,-32.98,M,0,*64
$GPFPD,1151,247119.447,0,0,0,3725.188621,12205.58791,-46.63,-0.401,0.654,-3.979,0,,
$GPGGA,203822.447,3725.188818,N,12205.58804,W,1,40,1.64,-12.56,M,-32.98,M,0,*6F
$GPFPD,1151,247120.447,0,0,0,3725.188818,12205.58804,-45.538,-0.041,0.552,-3.486,0,,
$GPGGA,203823.447,3725.188916,N,12205.58791,W,1,40,2.39,-12.89,M,-32.98,M,0,*64
$GPFPD,1151,247121.447,0,0,0,3725.188916,12205.58791,-45.871,0.481,0.242,-2.887,0,,
$GPGGA,203824.447,3725.188823,N,12205.58758,W,1,40,1.87,-14.22,M,-32.98,M,0,*6F
$GPFPD,1151,247122.447,0,0,0,3725.188823,12205.58758,-47.198,-0.014,0.058,-0.286,0,,
$GPGGA,203825.447,3725.188696,N,12205.58749,W,1,40,1.94,-11.33,M,-32.98,M,0,*68
$GPFPD,1151,247123.447,0,0,0,3725.188696,12205.58749,-44.306,-0.026,-0.034,0.101,0,,
$GPGGA,203826.447,3725.188672,N,12205.58752,W,1,41,1.5,-11.04,M,-32.98,M,0,*6C
$GPFPD,1151,247124.447,0,0,0,3725.188672,12205.58752,-44.023,-0.032,-0.021,0.002,0,,
$GPGGA,203827.447,3725.188617,N,12205.58765,W,1,41,1.23,-10.92,M,-32.98,M,0,*65
$GPFPD,1151,247125.447,0,0,0,3725.188617,12205.58765,-43.901,-0.039,0.023,-0.043,0,,
$GPGGA,203828.447,3725.188522,N,12205.58774,W,1,41,1.43,-10.71,M,-32.98,M,0,*6D
$GPFPD,1151,247126.447,0,0,0,3725.188523,12205.58774,-43.683,-0.035,0,-0.02,0,,
$GPGGA,203829.447,3725.188423,N,12205.58771,W,1,41,0.93,-10.33,M,-32.98,M,0,*6F
$GPFPD,1151,247127.447,0,0,0,3725.188423,12205.58771,-43.312,-0.018,-0.027,0.04,0,,
$GPGGA,203830.447,3725.188279,N,12205.58764,W,1,40,1.3,-10.09,M,-32.98,M,0,*61
$GPFPD,1151,247128.447,0,0,0,3725.188279,12205.58764,-43.072,-0.024,-0.025,0.029,0,,
$GPGGA,203831.447,3725.188162,N,12205.58764,W,1,40,1.43,-9.82,M,-32.98,M,0,*57
$GPFPD,1151,247129.447,0,0,0,3725.188162,12205.58764,-42.803,-0.021,-0.029,0.04,0,,
$GPGGA,203832.447,3725.188123,N,12205.58767,W,1,40,1.5,-9.53,M,-32.98,M,0,*55
$GPFPD,1151,247130.447,0,0,0,3725.188123,12205.58767,-42.512,-0.019,-0.03,0.049,0,,
$GPGGA,203833.447,3725.187999,N,12205.58748,W,1,39,1.3,-9.01,M,-32.98,M,0,*5F
$GPFPD,1151,247131.447,0,0,0,3725.187999,12205.58748,-41.985,0.091,-0.118,0.192,0,,
$GPGGA,203834.447,3725.187942,N,12205.58736,W,1,41,1.52,-8.69,M,-32.98,M,0,*5B
$GPFPD,1151,247132.447,0,0,0,3725.187942,12205.58736,-41.665,0.014,-0.071,0.114,0,,
$GPGGA,203835.447,3725.187978,N,12205.58738,W,1,40,1.41,-8.67,M,-32.98,M,0,*50
$GPFPD,1151,247133.447,0,0,0,3725.187978,12205.58738,-41.644,-0.07,0.032,-0.061,0,,
$GPGGA,203836.447,3725.187951,N,12205.58731,W,1,39,1.08,-8.37,M,-32.98,M,0,*53
$GPFPD,1151,247134.447,0,0,0,3725.187951,12205.58731,-41.348,-0.018,-0.012,-0.003,0,,
$GPGGA,203837.447,3725.187899,N,12205.58726,W,1,39,1.43,-8.03,M,-32.98,M,0,*54
$GPFPD,1151,247135.447,0,0,0,3725.187899,12205.58726,-41.004,-0.016,-0.013,0.026,0,,
$GPGGA,203838.447,3725.187719,N,12205.58724,W,1,39,0.99,-7.76,M,-32.98,M,0,*52
$GPFPD,1151,247136.447,0,0,0,3725.187719,12205.58724,-40.738,-0.016,-0.02,0.027,0,,
$GPGGA,203839.447,3725.187651,N,12205.58729,W,1,39,1.6,-7.76,M,-32.98,M,0,*52
$GPFPD,1151,247137.447,0,0,0,3725.187651,12205.58729,-40.742,-0.021,-0.015,0.015,0,,
$GPGGA,203840.447,3725.187502,N,12205.58719,W,1,39,0.99,-7.47,M,-32.98,M,0,*5E
$GPFPD,1151,247138.447,0,0,0,3725.187502,12205.58719,-40.445,-0.013,-0.023,0.024,0,,
$GPGGA,203841.447,3725.187371,N,12205.5872,W,1,39,1.1,-7.21,M,-32.98,M,0,*53
$GPFPD,1151,247139.447,0,0,0,3725.187371,12205.5872,-40.187,-0.013,-0.022,0.026,0,,
$GPGGA,203842.447,3725.187252,N,12205.58718,W,1,39,1.6,-7.03,M,-32.98,M,0,*50
$GPFPD,1151,247140.447,0,0,0,3725.187252,12205.58718,-40.008,-0.013,-0.03,0.032,0,,
$GPGGA,203843.447,3725.187261,N,12205.58713,W,1,39,0.93,-6.8,M,-32.98,M,0,*5E
$GPFPD,1151,247141.447,0,0,0,3725.187261,12205.58713,-39.78,-0.014,-0.015,0.016,0,,
$GPGGA,203844.447,3725.187116,N,12205.58707,W,1,39,0.78,-6.52,M,-32.98,M,0,*5A
$GPFPD,1151,247142.447,0,0,0,3725.187116,12205.58707,-39.494,-0.012,-0.021,0.018,0,,
$GPGGA,203845.447,3725.187035,N,12205.58699,W,1,39,1.59,-6.23,M,-32.98,M,0,*59
$GPFPD,1151,247143.447,0,0,0,3725.187035,12205.58699,-39.207,-0.02,-0.024,0.025,0,,
$GPGGA,203846.447,3725.187013,N,12205.58689,W,1,39,1.15,-6.04,M,-32.98,M,0,*54
$GPFPD,1151,247144.447,0,0,0,3725.187013,12205.58689,-39.016,-0.014,-0.013,-0.002,0,,
$GPGGA,203847.447,3725.186936,N,12205.5868,W,1,39,0.81,-5.78,M,-32.98,M,0,*5D
$GPFPD,1151,247145.447,0,0,0,3725.186936,12205.5868,-38.763,-0.011,-0.017,0.002,0,,
$GPGGA,203848.447,3725.186899,N,12205.58673,W,1,41,1.6,-5.55,M,-32.98,M,0,*5B
$GPFPD,1151,247146.447,0,0,0,3725.186899,12205.58673,-38.529,-0.015,-0.027,0.033,0,,
