$GPGGA,203221.447,3724.94991633,N,12204.74961504,W,4,33,3.91,11.72,M,-32.95,M,0.0,*4D
$GPFPD,1151,246759.447,00,00,00,3724.9499163,12204.7496150,-21.230,-0.011,-0.026,-0.052,00
$GPGGA,203227.447,3724.94613057,N,12204.75388881,W,4,33,3.79,10.22,M,-32.95,M,0.0,*44
$GPFPD,1151,246765.447,00,00,00,3724.9461306,12204.7538888,-22.731,-0.012,-0.048,0.067,00
$GPGGA,203228.447,3724.94858288,N,12204.75297361,W,4,33,2.51,21.32,M,-32.95,M,0.0,*48
$GPFPD,1151,246766.447,00,00,00,3724.9485829,12204.7529736,-11.627,-1.309,2.166,-5.513,00
$GPGGA,203230.447,3724.94849211,N,12204.75254033,W,4,32,3.74,4.94,M,-32.95,M,0.0,*76
$GPFPD,1151,246768.447,00,00,00,3724.9484921,12204.7525403,-28.015,-0.015,0.037,-0.123,00
$GPGGA,203231.447,3724.94663741,N,12204.75172147,W,4,35,2.31,11.53,M,-32.95,M,0.0,*4C
$GPFPD,1151,246769.447,00,00,00,3724.9466374,12204.7517215,-21.426,0.018,-0.101,0.162,00
$GPGGA,203242.447,3724.94696295,N,12204.75186333,W,4,35,2.39,5.72,M,-32.95,M,0.0,*7A
$GPFPD,1151,246780.447,00,00,00,3724.9469630,12204.7518633,-27.233,0.006,0.043,-0.065,00
$GPGGA,203245.447,3724.94551061,N,12204.74915188,W,4,37,2.28,13.50,M,-32.95,M,0.0,*48
$GPFPD,1151,246783.447,00,00,00,3724.9455106,12204.7491519,-19.449,0.007,0.009,-0.048,00
$GPGGA,203250.447,3724.94611206,N,12204.74855961,W,4,38,2.28,15.21,M,-32.95,M,0.0,*4D
$GPFPD,1151,246788.447,00,00,00,3724.9461121,12204.7485596,-17.740,0.000,-0.013,0.007,00
$GPGGA,203251.447,3724.94726174,N,12204.75063144,W,4,37,2.28,7.00,M,-32.95,M,0.0,*73
$GPFPD,1151,246789.447,00,00,00,3724.9472617,12204.7506314,-25.950,0.015,-0.080,0.166,00
$GPGGA,203255.447,3724.94645716,N,12204.74808830,W,4,36,2.28,12.49,M,-32.95,M,0.0,*47
$GPFPD,1151,246793.447,00,00,00,3724.9464572,12204.7480883,-20.459,0.042,-0.079,0.151,00
$GPGGA,203256.447,3724.94458908,N,12204.74704504,W,4,38,2.53,19.35,M,-32.95,M,0.0,*40
$GPFPD,1151,246794.447,00,00,00,3724.9445891,12204.7470450,-13.606,0.031,-0.006,0.050,00
$GPGGA,203257.447,3724.94536206,N,12204.74934012,W,1,38,2.20,13.79,M,-32.95,M,0.0,*41
$GPFPD,1151,246795.447,00,00,00,3724.9453621,12204.7493401,-19.165,0.005,0.006,0.026,00
$GPGGA,203258.447,3724.94878402,N,12204.75426723,W,1,37,2.04,13.71,M,-32.95,M,0.0,*40
$GPFPD,1151,246796.447,00,00,00,3724.9487840,12204.7542672,-19.244,-1.150,1.098,-3.415,00
$GPGGA,203259.447,3724.94976752,N,12204.75612043,W,1,38,2.03,11.68,M,-32.95,M,0.0,*4E
$GPFPD,1151,246797.447,00,00,00,3724.9497675,12204.7561204,-21.270,-0.988,0.991,-3.308,00
$GPGGA,203300.447,3724.94933202,N,12204.75656776,W,1,37,2.03,10.33,M,-32.95,M,0.0,*43
$GPFPD,1151,246798.447,00,00,00,3724.9493320,12204.7565678,-22.621,-1.031,0.936,-3.299,00
$GPGGA,203301.447,3724.94951418,N,12204.75643913,W,1,35,1.29,7.44,M,-32.95,M,0.0,*7D
$GPFPD,1151,246799.447,00,00,00,3724.9495142,12204.7564391,-25.511,-1.133,0.958,-3.043,00
$GPGGA,203302.447,3724.94951459,N,12204.75647271,W,1,38,1.61,6.99,M,-32.95,M,0.0,*70
$GPFPD,1151,246800.447,00,00,00,3724.9495146,12204.7564727,-25.965,-1.316,0.987,-2.681,00
$GPGGA,203303.447,3724.94944915,N,12204.75681413,W,1,37,1.61,6.15,M,-32.95,M,0.0,*73
$GPFPD,1151,246801.447,00,00,00,3724.9494492,12204.7568141,-26.806,-1.352,0.968,-2.631,00
$GPGGA,203304.447,3724.94929677,N,12204.75723001,W,1,37,2.04,5.00,M,-32.95,M,0.0,*7D
$GPFPD,1151,246802.447,00,00,00,3724.9492968,12204.7572300,-27.947,-1.321,0.981,-2.602,00
$GPGGA,203305.447,3724.94950645,N,12204.75790276,W,1,37,1.60,2.17,M,-32.95,M,0.0,*79
$GPFPD,1151,246803.447,00,00,00,3724.9495065,12204.7579028,-30.784,-1.277,0.964,-2.714,00
$GPGGA,203306.447,3724.94973782,N,12204.75829861,W,1,36,1.60,-0.51,M,-32.95,M,0.0,*5C
$GPFPD,1151,246804.447,00,00,00,3724.9497378,12204.7582986,-33.465,-1.227,0.945,-2.691,00
$GPGGA,203307.447,3724.95002022,N,12204.75887904,W,1,36,2.04,0.13,M,-32.95,M,0.0,*72
$GPFPD,1151,246805.447,00,00,00,3724.9500202,12204.7588790,-32.826,-1.316,0.948,-2.363,00
$GPGGA,203308.447,3724.95041989,N,12204.75936930,W,1,35,2.17,0.32,M,-32.95,M,0.0,*7C
$GPFPD,1151,246806.447,00,00,00,3724.9504199,12204.7593693,-32.636,-1.052,0.955,-2.372,00
$GPGGA,203309.447,3724.95081602,N,12204.75978208,W,1,35,2.81,0.44,M,-32.95,M,0.0,*79
$GPFPD,1151,246807.447,00,00,00,3724.9508160,12204.7597821,-32.507,-0.288,0.879,-1.599,00
$GPGGA,203310.447,3724.95092006,N,12204.75981356,W,1,34,5.06,0.03,M,-32.95,M,0.0,*77
$GPFPD,1151,246808.447,00,00,00,3724.9509201,12204.7598136,-32.920,-0.907,0.795,-3.697,00
$GPGGA,203311.447,3724.95123317,N,12204.75979411,W,1,35,1.27,-2.65,M,-32.95,M,0.0,*54
$GPFPD,1151,246809.447,00,00,00,3724.9512332,12204.7597941,-35.598,-1.088,0.937,-2.538,00
$GPGGA,203312.447,3724.95142212,N,12204.76009995,W,1,37,2.08,-0.25,M,-32.95,M,0.0,*52
$GPFPD,1151,246810.447,00,00,00,3724.9514221,12204.7600999,-33.205,-0.974,0.862,-3.928,00
$GPGGA,203313.447,3724.95178827,N,12204.76051236,W,1,29,2.67,-0.50,M,-32.95,M,0.0,*5D
$GPFPD,1151,246811.447,00,00,00,3724.9517883,12204.7605124,-33.449,-0.935,0.544,-1.399,00
$GPGGA,203314.447,3724.95182309,N,12204.76042734,W,1,35,2.52,0.06,M,-32.95,M,0.0,*78
$GPFPD,1151,246812.447,00,00,00,3724.9518231,12204.7604273,-32.892,-0.720,-0.307,-0.615,00
$GPGGA,203315.447,3724.95157370,N,12204.76033714,W,1,36,2.60,-0.40,M,-32.95,M,0.0,*56
$GPFPD,1151,246813.447,00,00,00,3724.9515737,12204.7603371,-33.349,-0.468,-0.133,-1.025,00
$GPGGA,203316.447,3724.95130113,N,12204.76045749,W,1,36,5.84,-0.85,M,-32.95,M,0.0,*5E
$GPFPD,1151,246814.447,00,00,00,3724.9513011,12204.7604575,-33.807,-0.493,-0.138,-0.786,00
$GPGGA,203317.447,3724.95100285,N,12204.76029645,W,1,38,1.94,-1.29,M,-32.95,M,0.0,*5B
$GPFPD,1151,246815.447,00,00,00,3724.9510029,12204.7602965,-34.245,-0.336,-0.134,-0.791,00
$GPGGA,203318.447,3724.95068902,N,12204.76014362,W,1,36,2.49,-1.34,M,-32.95,M,0.0,*50
$GPFPD,1151,246816.447,00,00,00,3724.9506890,12204.7601436,-34.295,-0.360,-0.185,-0.547,00
$GPGGA,203319.447,3724.95058263,N,12204.76020998,W,1,35,2.04,-1.69,M,-32.95,M,0.0,*54
$GPFPD,1151,246817.447,00,00,00,3724.9505826,12204.7602100,-34.642,-0.424,-0.086,-0.741,00
$GPGGA,203320.447,3724.95043952,N,12204.76007717,W,1,35,2.49,-1.79,M,-32.95,M,0.0,*59
$GPFPD,1151,246818.447,00,00,00,3724.9504395,12204.7600772,-34.744,-0.400,-0.154,-0.487,00
$GPGGA,203321.447,3724.95031173,N,12204.75993083,W,1,35,1.75,-2.34,M,-32.95,M,0.0,*5D
$GPFPD,1151,246819.447,00,00,00,3724.9503117,12204.7599308,-35.297,-0.344,-0.254,-0.615,00
$GPGGA,203322.447,3724.95008482,N,12204.76010673,W,1,35,1.71,-3.19,M,-32.95,M,0.0,*5D
$GPFPD,1151,246820.447,00,00,00,3724.9500848,12204.7601067,-36.147,-0.417,-0.257,-0.761,00
$GPGGA,203323.447,3724.94985194,N,12204.75986608,W,1,35,1.23,-3.27,M,-32.95,M,0.0,*50
$GPFPD,1151,246821.447,00,00,00,3724.9498519,12204.7598661,-36.226,-0.307,-0.235,-0.309,00
$GPGGA,203324.447,3724.94960110,N,12204.76012685,W,1,30,11.29,-2.67,M,-32.95,M,0.0,*69
$GPFPD,1151,246822.447,00,00,00,3724.9496011,12204.7601268,-35.623,-0.517,-0.292,-0.473,00
$GPGGA,203325.447,3724.94952973,N,12204.76021455,W,1,34,2.25,-2.29,M,-32.95,M,0.0,*5B
$GPFPD,1151,246823.447,00,00,00,3724.9495297,12204.7602145,-35.240,-0.028,-0.191,0.142,00
$GPGGA,203326.447,3724.94953571,N,12204.76004851,W,1,35,2.68,-2.14,M,-32.95,M,0.0,*5E
$GPFPD,1151,246824.447,00,00,00,3724.9495357,12204.7600485,-35.096,0.032,-0.099,0.175,00
$GPGGA,203327.447,3724.94942436,N,12204.76016178,W,1,33,2.18,-2.27,M,-32.95,M,0.0,*5D
$GPFPD,1151,246825.447,00,00,00,3724.9494244,12204.7601618,-35.221,-0.339,-0.265,-0.073,00
$GPGGA,203328.447,3724.94930550,N,12204.76026727,W,1,35,2.38,-2.45,M,-32.95,M,0.0,*59
$GPFPD,1151,246826.447,00,00,00,3724.9493055,12204.7602673,-35.405,-0.524,-0.279,-0.287,00
$GPGGA,203329.447,3724.94919287,N,12204.76053702,W,1,35,1.92,-2.78,M,-32.95,M,0.0,*56
$GPFPD,1151,246827.447,00,00,00,3724.9491929,12204.7605370,-35.736,-0.589,-0.220,-0.459,00
$GPGGA,203330.447,3724.94917942,N,12204.76057651,W,1,34,1.63,-3.57,M,-32.95,M,0.0,*52
$GPFPD,1151,246828.447,00,00,00,3724.9491794,12204.7605765,-36.522,-0.387,-0.146,-0.754,00
$GPGGA,203331.447,3724.94912403,N,12204.76050737,W,1,35,0.98,-3.99,M,-32.95,M,0.0,*5E
$GPFPD,1151,246829.447,00,00,00,3724.9491240,12204.7605074,-36.943,-0.383,-0.211,-0.388,00
$GPGGA,203332.447,3724.94914713,N,12204.76071948,W,1,36,1.90,-4.62,M,-32.95,M,0.0,*55
$GPFPD,1151,246830.447,00,00,00,3724.9491471,12204.7607195,-37.571,-0.439,-0.104,-0.625,00
$GPGGA,203333.447,3724.94902084,N,12204.76069034,W,1,37,2.72,-4.01,M,-32.95,M,0.0,*5A
$GPFPD,1151,246831.447,00,00,00,3724.9490208,12204.7606903,-36.958,-0.290,-0.039,-0.167,00
$GPGGA,203334.447,3724.94894666,N,12204.76049707,W,1,35,3.70,-3.45,M,-32.95,M,0.0,*5A
$GPFPD,1151,246832.447,00,00,00,3724.9489467,12204.7604971,-36.407,-0.123,-0.054,0.375,00
$GPGGA,203335.447,3724.94888620,N,12204.76063663,W,1,35,5.30,-3.40,M,-32.95,M,0.0,*58
$GPFPD,1151,246833.447,00,00,00,3724.9488862,12204.7606366,-36.348,-0.449,-0.090,-0.528,00
$GPGGA,203336.447,3724.94880949,N,12204.76081822,W,1,37,5.46,-3.31,M,-32.95,M,0.0,*51
$GPFPD,1151,246834.447,00,00,00,3724.9488095,12204.7608182,-36.258,-0.243,-0.096,0.403,00
$GPGGA,203337.447,3724.94880754,N,12204.76068012,W,1,35,5.46,-3.43,M,-32.95,M,0.0,*59
$GPFPD,1151,246835.447,00,00,00,3724.9488075,12204.7606801,-36.382,0.207,-0.055,-0.171,00
$GPGGA,203338.447,3724.94871376,N,12204.76085087,W,1,34,5.30,-3.59,M,-32.95,M,0.0,*58
$GPFPD,1151,246836.447,00,00,00,3724.9487138,12204.7608509,-36.546,-0.587,-0.092,-0.416,00
$GPGGA,203339.447,3724.94861727,N,12204.76091005,W,1,33,2.35,-3.92,M,-32.95,M,0.0,*55
$GPFPD,1151,246837.447,00,00,00,3724.9486173,12204.7609100,-36.871,-0.567,-0.136,-0.503,00
$GPGGA,203340.447,3724.94843401,N,12204.76114323,W,1,35,1.92,-4.13,M,-32.95,M,0.0,*51
$GPFPD,1151,246838.447,00,00,00,3724.9484340,12204.7611432,-37.082,-0.562,-0.187,-0.440,00
$GPGGA,203341.447,3724.94816980,N,12204.76105195,W,1,36,1.04,-4.50,M,-32.95,M,0.0,*50
$GPFPD,1151,246839.447,00,00,00,3724.9481698,12204.7610520,-37.457,-0.455,-0.243,-0.414,00
$GPGGA,203342.447,3724.94796750,N,12204.76120767,W,1,36,0.94,-4.95,M,-32.95,M,0.0,*5A
$GPFPD,1151,246840.447,00,00,00,3724.9479675,12204.7612077,-37.897,-0.392,-0.180,-0.442,00
$GPGGA,203343.447,3724.94773312,N,12204.76116929,W,1,33,1.52,-4.78,M,-32.95,M,0.0,*5E
$GPFPD,1151,246841.447,00,00,00,3724.9477331,12204.7611693,-37.734,-0.463,-0.229,-0.370,00
$GPGGA,203344.447,3724.94771575,N,12204.76127152,W,1,34,1.59,-5.22,M,-32.95,M,0.0,*58
$GPFPD,1151,246842.447,00,00,00,3724.9477157,12204.7612715,-38.172,-0.491,-0.209,-0.406,00
$GPGGA,203345.447,3724.94770495,N,12204.76144329,W,1,33,1.16,-5.78,M,-32.95,M,0.0,*5F
$GPFPD,1151,246843.447,00,00,00,3724.9477050,12204.7614433,-38.736,-0.512,-0.120,-0.467,00
$GPGGA,203346.447,3724.94772086,N,12204.76154457,W,1,34,1.44,-6.26,M,-32.95,M,0.0,*5F
$GPFPD,1151,246844.447,00,00,00,3724.9477209,12204.7615446,-39.213,-0.506,-0.096,-0.478,00
$GPGGA,203347.447,3724.94776900,N,12204.76176534,W,1,34,1.36,-6.70,M,-32.95,M,0.0,*5F
$GPFPD,1151,246845.447,00,00,00,3724.9477690,12204.7617653,-39.651,-0.522,-0.116,-0.478,00
$GPGGA,203348.447,3724.94768168,N,12204.76179366,W,1,34,1.30,-6.97,M,-32.95,M,0.0,*58
$GPFPD,1151,246846.447,00,00,00,3724.9476817,12204.7617937,-39.920,-0.448,-0.075,-0.433,00
$GPGGA,203349.447,3724.94762038,N,12204.76176778,W,1,33,1.27,-7.15,M,-32.95,M,0.0,*59
$GPFPD,1151,246847.447,00,00,00,3724.9476204,12204.7617678,-40.102,-0.253,-0.014,-0.371,00
$GPGGA,203350.447,3724.94758733,N,12204.76184369,W,1,35,1.22,-7.38,M,-32.95,M,0.0,*51
$GPFPD,1151,246848.447,00,00,00,3724.9475873,12204.7618437,-40.330,-0.473,-0.132,-0.354,00
$GPGGA,203351.447,3724.94746195,N,12204.76190613,W,1,34,2.82,-6.75,M,-32.95,M,0.0,*58
$GPFPD,1151,246849.447,00,00,00,3724.9474619,12204.7619061,-39.698,-0.099,-0.011,-0.251,00
$GPGGA,203352.447,3724.94747304,N,12204.76185073,W,1,34,2.16,-6.62,M,-32.95,M,0.0,*5F
$GPFPD,1151,246850.447,00,00,00,3724.9474730,12204.7618507,-39.572,0.020,0.031,-0.157,00
$GPGGA,203353.447,3724.94745462,N,12204.76177888,W,1,34,2.63,-6.62,M,-32.95,M,0.0,*58
$GPFPD,1151,246851.447,00,00,00,3724.9474546,12204.7617789,-39.572,-0.087,-0.001,-0.139,00
$GPGGA,203354.447,3724.94737532,N,12204.76163880,W,1,34,1.29,-7.10,M,-32.95,M,0.0,*5A
$GPFPD,1151,246852.447,00,00,00,3724.9473753,12204.7616388,-40.056,-0.399,-0.041,-0.366,00
$GPGGA,203355.447,3724.94733307,N,12204.76139872,W,1,35,1.29,-7.16,M,-32.95,M,0.0,*5A
$GPFPD,1151,246853.447,00,00,00,3724.9473331,12204.7613987,-40.115,-0.068,-0.041,-0.113,00
$GPGGA,203356.447,3724.94730632,N,12204.76127346,W,1,35,1.61,-7.68,M,-32.95,M,0.0,*5F
$GPFPD,1151,246854.447,00,00,00,3724.9473063,12204.7612735,-40.637,-0.423,-0.030,-0.667,00
$GPGGA,203357.447,3724.94717924,N,12204.76135865,W,1,33,2.35,-7.62,M,-32.95,M,0.0,*54
$GPFPD,1151,246855.447,00,00,00,3724.9471792,12204.7613587,-40.575,-0.510,-0.053,-0.559,00
$GPGGA,203358.447,3724.94709935,N,12204.76143710,W,1,35,1.61,-8.06,M,-32.95,M,0.0,*51
$GPFPD,1151,246856.447,00,00,00,3724.9470993,12204.7614371,-41.008,-0.431,-0.084,-0.514,00
$GPGGA,203359.447,3724.94704851,N,12204.76149671,W,1,34,2.73,-7.80,M,-32.95,M,0.0,*52
$GPFPD,1151,246857.447,00,00,00,3724.9470485,12204.7614967,-40.749,-0.199,-0.058,-0.293,00
$GPGGA,203400.447,3724.94706771,N,12204.76144884,W,1,33,2.84,-7.68,M,-32.95,M,0.0,*56
$GPFPD,1151,246858.447,00,00,00,3724.9470677,12204.7614488,-40.633,0.035,-0.035,-0.038,00
$GPGGA,203401.447,3724.94702391,N,12204.76155863,W,1,33,2.49,-7.70,M,-32.95,M,0.0,*58
$GPFPD,1151,246859.447,00,00,00,3724.9470239,12204.7615586,-40.652,-0.567,-0.072,-0.330,00
$GPGGA,203402.447,3724.94702952,N,12204.76168980,W,1,34,2.90,-7.67,M,-32.95,M,0.0,*59
$GPFPD,1151,246860.447,00,00,00,3724.9470295,12204.7616898,-40.623,0.007,-0.046,-0.020,00
$GPGGA,203403.447,3724.94703662,N,12204.76138319,W,1,32,1.91,-7.99,M,-32.95,M,0.0,*5F
$GPFPD,1151,246861.447,00,00,00,3724.9470366,12204.7613832,-40.940,-0.513,-0.062,-0.428,00
$GPGGA,203404.447,3724.94698103,N,12204.76131097,W,1,35,2.73,-7.88,M,-32.95,M,0.0,*5F
$GPFPD,1151,246862.447,00,00,00,3724.9469810,12204.7613110,-40.831,-0.068,-0.076,0.016,00
$GPGGA,203405.447,3724.94694650,N,12204.76116548,W,1,34,2.71,-7.76,M,-32.95,M,0.0,*53
$GPFPD,1151,246863.447,00,00,00,3724.9469465,12204.7611655,-40.711,0.014,-0.071,0.099,00
$GPGGA,203406.447,3724.94687837,N,12204.76110520,W,1,34,2.61,-7.71,M,-32.95,M,0.0,*53
$GPFPD,1151,246864.447,00,00,00,3724.9468784,12204.7611052,-40.666,-0.008,-0.067,0.080,00
$GPGGA,203407.447,3724.94691972,N,12204.76109188,W,1,32,3.16,-7.69,M,-32.95,M,0.0,*55
$GPFPD,1151,246865.447,00,00,00,3724.9469197,12204.7610919,-40.643,-0.008,-0.060,0.063,00
$GPGGA,203408.447,3724.94685472,N,12204.76074855,W,1,33,0.99,-7.65,M,-32.95,M,0.0,*59
$GPFPD,1151,246866.447,00,00,00,3724.9468547,12204.7607485,-40.597,0.016,-0.053,0.040,00
$GPGGA,203409.447,3724.94678245,N,12204.76079849,W,1,34,0.90,-7.93,M,-32.95,M,0.0,*5F
$GPFPD,1151,246867.447,00,00,00,3724.9467824,12204.7607985,-40.886,-0.128,-0.069,-0.080,00
$GPGGA,203410.447,3724.94670745,N,12204.76071546,W,1,34,1.49,-8.25,M,-32.95,M,0.0,*57
$GPFPD,1151,246868.447,00,00,00,3724.9467075,12204.7607155,-41.203,-0.439,-0.080,-0.308,00
$GPGGA,203411.447,3724.94657137,N,12204.76081590,W,1,32,2.47,-8.17,M,-32.95,M,0.0,*5E
$GPFPD,1151,246869.447,00,00,00,3724.9465714,12204.7608159,-41.122,-0.531,-0.105,-0.309,00
$GPGGA,203412.447,3724.94660564,N,12204.76090086,W,1,34,1.93,-8.61,M,-32.95,M,0.0,*54
$GPFPD,1151,246870.447,00,00,00,3724.9466056,12204.7609009,-41.563,-0.397,-0.081,-0.585,00
$GPGGA,203413.447,3724.94652548,N,12204.76096689,W,1,32,2.04,-8.67,M,-32.95,M,0.0,*58
$GPFPD,1151,246871.447,00,00,00,3724.9465255,12204.7609669,-41.624,-0.544,-0.129,-0.436,00
$GPGGA,203414.447,3724.94651820,N,12204.76093194,W,1,34,1.06,-9.00,M,-32.95,M,0.0,*56
$GPFPD,1151,246872.447,00,00,00,3724.9465182,12204.7609319,-41.950,-0.812,-0.091,-0.369,00
$GPGGA,203415.447,3724.94638558,N,12204.76144072,W,1,34,1.63,-8.68,M,-32.95,M,0.0,*54
$GPFPD,1151,246873.447,00,00,00,3724.9463856,12204.7614407,-41.629,-1.227,-0.123,-0.124,00
$GPGGA,203416.447,3724.94620604,N,12204.76199769,W,1,36,1.15,-8.79,M,-32.95,M,0.0,*5A
$GPFPD,1151,246874.447,00,00,00,3724.9462060,12204.7619977,-41.739,-1.290,-0.231,-0.241,00
$GPGGA,203417.447,3724.94569518,N,12204.76280048,W,1,35,1.33,-8.97,M,-32.95,M,0.0,*53
$GPFPD,1151,246875.447,00,00,00,3724.9456952,12204.7628005,-41.926,-1.660,-1.187,-0.515,00
$GPGGA,203418.447,3724.94448888,N,12204.76363806,W,1,37,1.76,-9.42,M,-32.95,M,0.0,*5E
$GPFPD,1151,246876.447,00,00,00,3724.9444889,12204.7636381,-42.372,-1.694,-3.818,-0.488,00
$GPGGA,203419.447,3724.94242480,N,12204.76419033,W,1,37,1.72,-9.18,M,-32.95,M,0.0,*58
$GPFPD,1151,246877.447,00,00,00,3724.9424248,12204.7641903,-42.128,-1.356,-5.911,-0.057,00
$GPGGA,203420.447,3724.93874930,N,12204.76452688,W,1,33,1.35,-9.23,M,-32.95,M,0.0,*5A
$GPFPD,1151,246878.447,00,00,00,3724.9387493,12204.7645269,-42.181,-0.294,-8.417,-0.227,00
$GPGGA,203421.447,3724.93480860,N,12204.76436193,W,1,33,1.43,-8.83,M,-32.95,M,0.0,*5D
$GPFPD,1151,246879.447,00,00,00,3724.9348086,12204.7643619,-41.784,-0.261,-8.596,0.244,00
$GPGGA,203422.447,3724.93126914,N,12204.76382787,W,1,36,1.62,-7.89,M,-32.95,M,0.0,*5D
$GPFPD,1151,246880.447,00,00,00,3724.9312691,12204.7638279,-40.843,-0.066,-6.986,1.081,00
$GPGGA,203423.447,3724.92857620,N,12204.76299146,W,1,34,2.28,-9.10,M,-32.95,M,0.0,*5B
$GPFPD,1151,246881.447,00,00,00,3724.9285762,12204.7629915,-42.050,1.509,-4.278,-4.308,00
$GPGGA,203424.447,3724.92693479,N,12204.76163084,W,1,33,1.36,-8.98,M,-32.95,M,0.0,*57
$GPFPD,1151,246882.447,00,00,00,3724.9269348,12204.7616308,-41.934,1.009,-2.704,0.442,00
$GPGGA,203425.447,3724.92549188,N,12204.76069440,W,1,35,1.57,-6.81,M,-32.95,M,0.0,*59
$GPFPD,1151,246883.447,00,00,00,3724.9254919,12204.7606944,-39.764,1.114,-1.816,-0.220,00
$GPGGA,203426.447,3724.92494585,N,12204.75949814,W,1,34,5.22,-8.48,M,-32.95,M,0.0,*5B
$GPFPD,1151,246884.447,00,00,00,3724.9249459,12204.7594981,-41.435,1.450,-1.199,0.425,00
$GPGGA,203427.447,3724.92469686,N,12204.75703101,W,1,35,1.37,-8.22,M,-32.95,M,0.0,*58
$GPFPD,1151,246885.447,00,00,00,3724.9246969,12204.7570310,-41.177,3.582,-0.846,0.021,00
$GPGGA,203428.447,3724.92525277,N,12204.75303120,W,1,33,1.55,-7.92,M,-32.95,M,0.0,*55
$GPFPD,1151,246886.447,00,00,00,3724.9252528,12204.7530312,-40.874,6.344,0.471,0.113,00
$GPGGA,203429.447,3724.92601283,N,12204.74592856,W,1,33,1.17,-7.10,M,-32.95,M,0.0,*51
$GPFPD,1151,246887.447,00,00,00,3724.9260128,12204.7459286,-40.049,8.753,1.787,0.503,00
$GPGGA,203430.447,3724.92785760,N,12204.73814037,W,1,31,1.01,-6.89,M,-32.95,M,0.0,*53
$GPFPD,1151,246888.447,00,00,00,3724.9278576,12204.7381404,-39.845,10.165,3.166,-0.343,00
$GPGGA,203431.447,3724.92969075,N,12204.72990559,W,1,32,0.94,-6.82,M,-32.95,M,0.0,*59
$GPFPD,1151,246889.447,00,00,00,3724.9296907,12204.7299056,-39.771,10.071,3.040,-0.211,00
$GPGGA,203432.447,3724.93141102,N,12204.72276533,W,1,35,0.91,-5.90,M,-32.95,M,0.0,*55
$GPFPD,1151,246890.447,00,00,00,3724.9314110,12204.7227653,-38.849,9.468,2.436,0.498,00
$GPGGA,203433.447,3724.93254564,N,12204.71667483,W,1,32,1.04,-5.38,M,-32.95,M,0.0,*52
$GPFPD,1151,246891.447,00,00,00,3724.9325456,12204.7166748,-38.326,8.467,1.298,0.282,00
$GPGGA,203434.447,3724.93280502,N,12204.71129730,W,1,31,0.88,-4.96,M,-32.95,M,0.0,*59
$GPFPD,1151,246892.447,00,00,00,3724.9328050,12204.7112973,-37.912,7.139,-0.139,0.229,00
$GPGGA,203435.447,3724.93342199,N,12204.70717033,W,1,35,0.80,-4.17,M,-32.95,M,0.0,*5A
$GPFPD,1151,246893.447,00,00,00,3724.9334220,12204.7071703,-37.119,5.152,0.365,0.314,00
$GPGGA,203436.447,3724.93357714,N,12204.70390406,W,1,36,0.89,-3.05,M,-32.95,M,0.0,*59
$GPFPD,1151,246894.447,00,00,00,3724.9335771,12204.7039041,-36.005,3.705,-0.313,0.514,00
$GPGGA,203437.447,3724.93339213,N,12204.70168747,W,1,36,0.85,-2.39,M,-32.95,M,0.0,*53
$GPFPD,1151,246895.447,00,00,00,3724.9333921,12204.7016875,-35.339,3.033,-0.428,0.182,00
$GPGGA,203438.447,3724.93346403,N,12204.69943885,W,1,31,0.88,-2.02,M,-32.95,M,0.0,*59
$GPFPD,1151,246896.447,00,00,00,3724.9334640,12204.6994388,-34.968,2.105,-0.312,-0.113,00
$GPGGA,203439.447,3724.93349438,N,12204.69824185,W,1,36,0.97,-1.78,M,-32.95,M,0.0,*51
$GPFPD,1151,246897.447,00,00,00,3724.9334944,12204.6982419,-34.730,1.441,-0.448,-0.089,00
$GPGGA,203440.447,3724.93331955,N,12204.69704857,W,1,37,0.86,-1.29,M,-32.95,M,0.0,*58
$GPFPD,1151,246898.447,00,00,00,3724.9333195,12204.6970486,-34.243,1.110,-0.254,-0.097,00
$GPGGA,203441.447,3724.93311738,N,12204.69642709,W,1,37,0.94,-0.88,M,-32.95,M,0.0,*50
$GPFPD,1151,246899.447,00,00,00,3724.9331174,12204.6964271,-33.833,0.374,-0.130,-0.053,00
$GPGGA,203442.447,3724.93303218,N,12204.69648827,W,1,36,0.96,-0.41,M,-32.95,M,0.0,*58
$GPFPD,1151,246900.447,00,00,00,3724.9330322,12204.6964883,-33.361,0.005,-0.123,0.014,00
$GPGGA,203443.447,3724.93293266,N,12204.69650676,W,1,36,1.06,0.03,M,-32.95,M,0.0,*78
$GPFPD,1151,246901.447,00,00,00,3724.9329327,12204.6965068,-32.922,0.010,-0.086,0.039,00
$GPGGA,203444.447,3724.93298465,N,12204.69659140,W,1,36,0.94,0.29,M,-32.95,M,0.0,*78
$GPFPD,1151,246902.447,00,00,00,3724.9329847,12204.6965914,-32.660,-0.002,-0.050,0.031,00
$GPGGA,203445.447,3724.93284378,N,12204.69668106,W,1,38,0.92,0.59,M,-32.95,M,0.0,*70
$GPFPD,1151,246903.447,00,00,00,3724.9328438,12204.6966811,-32.358,-0.006,-0.040,0.014,00
$GPGGA,203446.447,3724.93268025,N,12204.69643368,W,1,38,0.78,1.18,M,-32.95,M,0.0,*79
$GPFPD,1151,246904.447,00,00,00,3724.9326802,12204.6964337,-31.767,0.084,-0.069,0.047,00
$GPGGA,203447.447,3724.93258893,N,12204.69624007,W,1,36,0.93,1.68,M,-32.95,M,0.0,*79
$GPFPD,1151,246905.447,00,00,00,3724.9325889,12204.6962401,-31.268,0.253,-0.097,0.042,00
$GPGGA,203448.447,3724.93267222,N,12204.69635701,W,1,36,0.96,1.82,M,-32.95,M,0.0,*7A
$GPFPD,1151,246906.447,00,00,00,3724.9326722,12204.6963570,-31.135,0.016,-0.065,0.045,00
$GPGGA,203449.447,3724.93279253,N,12204.69648773,W,1,35,0.88,1.92,M,-32.95,M,0.0,*70
$GPFPD,1151,246907.447,00,00,00,3724.9327925,12204.6964877,-31.029,-0.015,-0.044,0.041,00
$GPGGA,203450.447,3724.93290512,N,12204.69660542,W,1,36,0.87,2.10,M,-32.95,M,0.0,*72
$GPFPD,1151,246908.447,00,00,00,3724.9329051,12204.6966054,-30.847,-0.009,-0.028,0.041,00
$GPGGA,203451.447,3724.93297210,N,12204.69659021,W,1,36,0.93,2.47,M,-32.95,M,0.0,*7C
$GPFPD,1151,246909.447,00,00,00,3724.9329721,12204.6965902,-30.483,-0.006,-0.015,0.045,00
$GPGGA,203452.447,3724.93310858,N,12204.69661208,W,1,37,0.87,2.54,M,-32.95,M,0.0,*73
$GPFPD,1151,246910.447,00,00,00,3724.9331086,12204.6966121,-30.410,-0.003,-0.006,0.044,00
$GPGGA,203453.447,3724.93323464,N,12204.69665145,W,1,37,0.95,2.66,M,-32.95,M,0.0,*7D
$GPFPD,1151,246911.447,00,00,00,3724.9332346,12204.6966514,-30.286,-0.011,0.003,-0.025,00
$GPGGA,203454.447,3724.93329270,N,12204.69663365,W,1,37,0.90,3.00,M,-32.95,M,0.0,*71
$GPFPD,1151,246912.447,00,00,00,3724.9332927,12204.6966337,-29.953,-0.009,-0.018,0.032,00
$GPGGA,203455.447,3724.93331871,N,12204.69668124,W,1,38,0.79,2.99,M,-32.95,M,0.0,*77
$GPFPD,1151,246913.447,00,00,00,3724.9333187,12204.6966812,-29.957,-0.026,0.002,-0.028,00
$GPGGA,203456.447,3724.93334975,N,12204.69662295,W,1,38,0.82,3.13,M,-32.95,M,0.0,*70
$GPFPD,1151,246914.447,00,00,00,3724.9333497,12204.6966229,-29.824,-0.021,-0.008,0.001,00
$GPGGA,203457.447,3724.93335953,N,12204.69671961,W,1,38,0.79,3.30,M,-32.95,M,0.0,*73
$GPFPD,1151,246915.447,00,00,00,3724.9333595,12204.6967196,-29.650,-0.019,-0.022,0.034,00
$GPGGA,203458.447,3724.93338016,N,12204.69669806,W,1,38,0.95,3.58,M,-32.95,M,0.0,*7C
$GPFPD,1151,246916.447,00,00,00,3724.9333802,12204.6966981,-29.367,-0.020,-0.020,0.029,00
$GPGGA,203459.447,3724.93349597,N,12204.69666092,W,1,38,0.91,3.86,M,-32.95,M,0.0,*7A
$GPFPD,1151,246917.447,00,00,00,3724.9334960,12204.6966609,-29.093,-0.023,0.006,-0.002,00
$GPGGA,203500.447,3724.93351257,N,12204.69669138,W,1,37,0.88,3.97,M,-32.95,M,0.0,*7C
$GPFPD,1151,246918.447,00,00,00,3724.9335126,12204.6966914,-28.975,-0.022,0.005,-0.023,00
$GPGGA,203501.447,3724.93354535,N,12204.69666214,W,1,37,0.89,4.18,M,-32.95,M,0.0,*78
$GPFPD,1151,246919.447,00,00,00,3724.9335453,12204.6966621,-28.766,-0.025,-0.001,-0.011,00
$GPGGA,203502.447,3724.93356874,N,12204.69666621,W,1,37,0.82,4.39,M,-32.95,M,0.0,*7B
$GPFPD,1151,246920.447,00,00,00,3724.9335687,12204.6966662,-28.557,-0.032,0.009,-0.033,00
$GPGGA,203503.447,3724.93360332,N,12204.69669428,W,1,37,0.80,4.48,M,-32.95,M,0.0,*76
$GPFPD,1151,246921.447,00,00,00,3724.9336033,12204.6966943,-28.471,-0.034,0.003,-0.026,00
$GPGGA,203504.447,3724.93367732,N,12204.69670606,W,1,37,1.02,4.75,M,-32.95,M,0.0,*71
$GPFPD,1151,246922.447,00,00,00,3724.9336773,12204.6967061,-28.195,-0.005,0.013,-0.028,00
$GPGGA,203505.447,3724.93374695,N,12204.69668238,W,1,37,1.12,4.89,M,-32.95,M,0.0,*7C
$GPFPD,1151,246923.447,00,00,00,3724.9337470,12204.6966824,-28.064,-0.029,-0.008,-0.014,00
$GPGGA,203506.447,3724.93371339,N,12204.69675481,W,1,37,0.98,5.07,M,-32.95,M,0.0,*75
$GPFPD,1151,246924.447,00,00,00,3724.9337134,12204.6967548,-27.876,-0.028,-0.008,-0.009,00
$GPGGA,203507.447,3724.93376427,N,12204.69676749,W,1,36,1.24,5.24,M,-32.95,M,0.0,*79
$GPFPD,1151,246925.447,00,00,00,3724.9337643,12204.6967675,-27.707,-0.009,-0.001,0.018,00
$GPGGA,203508.447,3724.93381544,N,12204.69678811,W,1,37,0.94,5.26,M,-32.95,M,0.0,*7F
$GPFPD,1151,246926.447,00,00,00,3724.9338154,12204.6967881,-27.694,-0.014,-0.009,0.015,00
$GPGGA,203509.447,3724.93382948,N,12204.69661662,W,1,36,1.07,5.41,M,-32.95,M,0.0,*74
$GPFPD,1151,246927.447,00,00,00,3724.9338295,12204.6966166,-27.540,-0.018,-0.017,-0.020,00
$GPGGA,203510.447,3724.93385051,N,12204.69660852,W,1,35,0.97,5.34,M,-32.95,M,0.0,*7F
$GPFPD,1151,246928.447,00,00,00,3724.9338505,12204.6966085,-27.610,-0.031,-0.010,-0.020,00
$GPGGA,203511.447,3724.93372373,N,12204.69646589,W,1,38,0.91,5.52,M,-32.95,M,0.0,*71
$GPFPD,1151,246929.447,00,00,00,3724.9337237,12204.6964659,-27.426,0.063,-0.023,-0.014,00
$GPGGA,203512.447,3724.93344335,N,12204.69626064,W,1,36,0.89,5.80,M,-32.95,M,0.0,*7D
$GPFPD,1151,246930.447,00,00,00,3724.9334433,12204.6962606,-27.147,0.162,-0.085,-0.005,00
$GPGGA,203513.447,3724.93332756,N,12204.69611945,W,1,38,1.05,6.29,M,-32.95,M,0.0,*79
$GPFPD,1151,246931.447,00,00,00,3724.9333276,12204.6961195,-26.655,0.053,-0.024,0.016,00
$GPGGA,203514.447,3724.93324873,N,12204.69601510,W,1,38,0.81,6.47,M,-32.95,M,0.0,*79
$GPFPD,1151,246932.447,00,00,00,3724.9332487,12204.6960151,-26.478,0.140,-0.111,0.012,00
$GPGGA,203515.447,3724.93302506,N,12204.69587757,W,1,35,0.92,6.47,M,-32.95,M,0.0,*70
$GPFPD,1151,246933.447,00,00,00,3724.9330251,12204.6958776,-26.479,0.191,-0.206,0.023,00
$GPGGA,203516.447,3724.93279864,N,12204.69562288,W,1,35,0.93,6.54,M,-32.95,M,0.0,*78
$GPFPD,1151,246934.447,00,00,00,3724.9327986,12204.6956229,-26.414,0.367,-0.360,0.016,00
$GPGGA,203517.447,3724.93250876,N,12204.69521825,W,1,35,0.91,6.91,M,-32.95,M,0.0,*70
$GPFPD,1151,246935.447,00,00,00,3724.9325088,12204.6952183,-26.043,0.841,-0.427,0.061,00
$GPGGA,203518.447,3724.93183884,N,12204.69442579,W,1,35,0.84,6.94,M,-32.95,M,0.0,*7E
$GPFPD,1151,246936.447,00,00,00,3724.9318388,12204.6944258,-26.005,1.189,-1.158,0.030,00
$GPGGA,203519.447,3724.93046390,N,12204.69362809,W,1,35,1.42,6.62,M,-32.95,M,0.0,*74
$GPFPD,1151,246937.447,00,00,00,3724.9304639,12204.6936281,-26.332,1.257,-3.239,-0.074,00
$GPGGA,203520.447,3724.92798306,N,12204.69306835,W,1,34,1.09,6.65,M,-32.95,M,0.0,*70
$GPFPD,1151,246938.447,00,00,00,3724.9279831,12204.6930683,-26.304,0.788,-5.090,0.010,00
$GPGGA,203521.447,3724.92478906,N,12204.69268410,W,1,37,1.05,6.69,M,-32.95,M,0.0,*77
$GPFPD,1151,246939.447,00,00,00,3724.9247891,12204.6926841,-26.262,0.279,-5.845,-0.058,00
$GPGGA,203522.447,3724.92166668,N,12204.69254963,W,1,34,1.08,6.97,M,-32.95,M,0.0,*70
$GPFPD,1151,246940.447,00,00,00,3724.9216667,12204.6925496,-25.985,-0.206,-5.804,0.142,00
$GPGGA,203523.447,3724.91839646,N,12204.69268407,W,1,34,1.72,6.83,M,-32.95,M,0.0,*75
$GPFPD,1151,246941.447,00,00,00,3724.9183965,12204.6926841,-26.119,-0.079,-5.659,0.258,00
$GPGGA,203524.447,3724.91558723,N,12204.69275765,W,1,32,1.44,6.90,M,-32.95,M,0.0,*70
$GPFPD,1151,246942.447,00,00,00,3724.9155872,12204.6927577,-26.049,-0.091,-5.434,0.091,00
$GPGGA,203525.447,3724.91242382,N,12204.69281216,W,1,34,1.44,7.01,M,-32.95,M,0.0,*77
$GPFPD,1151,246943.447,00,00,00,3724.9124238,12204.6928122,-25.945,-0.071,-5.551,0.113,00
$GPGGA,203526.447,3724.90940951,N,12204.69294890,W,1,33,1.09,6.94,M,-32.95,M,0.0,*7B
$GPFPD,1151,246944.447,00,00,00,3724.9094095,12204.6929489,-26.007,-0.141,-5.489,0.037,00
$GPGGA,203527.447,3724.90643157,N,12204.69302503,W,1,33,1.27,6.92,M,-32.95,M,0.0,*7B
$GPFPD,1151,246945.447,00,00,00,3724.9064316,12204.6930250,-26.031,-0.108,-5.432,-0.006,00
$GPGGA,203528.447,3724.90337388,N,12204.69291149,W,1,34,1.27,7.40,M,-32.95,M,0.0,*7A
$GPFPD,1151,246946.447,00,00,00,3724.9033739,12204.6929115,-25.546,0.030,-5.501,0.156,00
$GPGGA,203529.447,3724.90031665,N,12204.69290106,W,1,35,1.80,7.18,M,-32.95,M,0.0,*73
$GPFPD,1151,246947.447,00,00,00,3724.9003166,12204.6929011,-25.771,0.060,-5.565,0.144,00
$GPGGA,203530.447,3724.89690124,N,12204.69279931,W,1,36,1.42,7.34,M,-32.95,M,0.0,*74
$GPFPD,1151,246948.447,00,00,00,3724.8969012,12204.6927993,-25.607,0.081,-6.140,0.149,00
$GPGGA,203531.447,3724.89303997,N,12204.69277173,W,1,35,0.80,7.71,M,-32.95,M,0.0,*77
$GPFPD,1151,246949.447,00,00,00,3724.8930400,12204.6927717,-25.245,0.067,-7.141,0.227,00
$GPGGA,203532.447,3724.88887227,N,12204.69283494,W,1,36,0.94,7.73,M,-32.95,M,0.0,*71
$GPFPD,1151,246950.447,00,00,00,3724.8888723,12204.6928349,-25.216,0.009,-7.500,0.143,00
$GPGGA,203533.447,3724.88493416,N,12204.69285795,W,1,37,0.88,7.92,M,-32.95,M,0.0,*7A
$GPFPD,1151,246951.447,00,00,00,3724.8849342,12204.6928579,-25.031,-0.038,-7.304,0.164,00
$GPGGA,203534.447,3724.88095654,N,12204.69294442,W,1,34,1.17,7.98,M,-32.95,M,0.0,*7C
$GPFPD,1151,246952.447,00,00,00,3724.8809565,12204.6929444,-24.966,-0.054,-7.233,0.150,00
$GPGGA,203535.447,3724.87726739,N,12204.69305026,W,1,34,0.96,8.15,M,-32.95,M,0.0,*7A
$GPFPD,1151,246953.447,00,00,00,3724.8772674,12204.6930503,-24.806,-0.064,-6.882,0.154,00
$GPGGA,203536.447,3724.87356433,N,12204.69310853,W,1,34,0.96,8.10,M,-32.95,M,0.0,*78
$GPFPD,1151,246954.447,00,00,00,3724.8735643,12204.6931085,-24.855,-0.065,-6.759,0.117,00
$GPGGA,203537.447,3724.86988331,N,12204.69309986,W,1,35,0.87,8.26,M,-32.95,M,0.0,*71
$GPFPD,1151,246955.447,00,00,00,3724.8698833,12204.6930999,-24.689,-0.050,-6.622,0.135,00
$GPGGA,203538.447,3724.86641400,N,12204.69317913,W,1,32,1.34,8.64,M,-32.95,M,0.0,*7A
$GPFPD,1151,246956.447,00,00,00,3724.8664140,12204.6931791,-24.307,-0.074,-6.385,0.196,00
$GPGGA,203539.447,3724.86332111,N,12204.69351155,W,1,35,1.24,8.61,M,-32.95,M,0.0,*74
$GPFPD,1151,246957.447,00,00,00,3724.8633211,12204.6935116,-24.339,-0.178,-5.184,0.174,00
$GPGGA,203540.447,3724.86090486,N,12204.69368497,W,1,36,0.90,8.90,M,-32.95,M,0.0,*78
$GPFPD,1151,246958.447,00,00,00,3724.8609049,12204.6936850,-24.049,-0.371,-3.531,0.206,00
$GPGGA,203541.447,3724.85945328,N,12204.69406151,W,1,35,2.09,8.61,M,-32.95,M,0.0,*77
$GPFPD,1151,246959.447,00,00,00,3724.8594533,12204.6940615,-24.341,-0.716,-2.423,0.193,00
$GPGGA,203542.447,3724.85816044,N,12204.69447438,W,1,33,1.55,8.52,M,-32.95,M,0.0,*79
$GPFPD,1151,246960.447,00,00,00,3724.8581604,12204.6944744,-24.436,-0.533,-2.763,0.140,00
$GPGGA,203543.447,3724.85577081,N,12204.69442628,W,1,33,1.23,8.53,M,-32.95,M,0.0,*7D
$GPFPD,1151,246961.447,00,00,00,3724.8557708,12204.6944263,-24.423,-0.013,-4.588,0.092,00
$GPGGA,203544.447,3724.85232490,N,12204.69455795,W,1,33,1.32,8.28,M,-32.95,M,0.0,*75
$GPFPD,1151,246962.447,00,00,00,3724.8523249,12204.6945580,-24.672,-0.382,-7.760,-0.073,00
$GPGGA,203545.447,3724.84710962,N,12204.69515519,W,1,35,1.15,7.63,M,-32.95,M,0.0,*70
$GPFPD,1151,246963.447,00,00,00,3724.8471096,12204.6951552,-25.326,-1.196,-9.655,-0.714,00
$GPGGA,203546.447,3724.84120982,N,12204.69651584,W,1,35,1.45,4.49,M,-32.95,M,0.0,*71
$GPFPD,1151,246964.447,00,00,00,3724.8412098,12204.6965158,-28.461,-2.963,-9.343,-5.184,00
$GPGGA,203547.447,3724.83542219,N,12204.69831361,W,1,38,1.50,-0.57,M,-32.95,M,0.0,*54
$GPFPD,1151,246965.447,00,00,00,3724.8354222,12204.6983136,-33.521,-2.949,-11.215,-5.536,00
$GPGGA,203548.447,3724.82800809,N,12204.69981184,W,1,38,1.26,-4.41,M,-32.95,M,0.0,*5B
$GPFPD,1151,246966.447,00,00,00,3724.8280081,12204.6998118,-37.367,-2.742,-13.509,-5.127,00
$GPGGA,203549.447,3724.82021955,N,12204.70154673,W,1,38,1.50,-7.91,M,-32.95,M,0.0,*51
$GPFPD,1151,246967.447,00,00,00,3724.8202196,12204.7015467,-40.861,-2.795,-12.959,-4.613,00
$GPGGA,203550.447,3724.82021955,N,12204.70154673,W,3,38,2.18,-7.91,M,-32.95,M,0.0,*54
$GPFPD,1151,246968.447,00,00,00,3724.8202196,12204.7015467,-40.861,-2.795,-12.959,-4.613,00
$GPGGA,203551.447,3724.81111586,N,12204.70348258,W,1,38,1.49,-9.94,M,-32.95,M,0.0,*5A
$GPFPD,1151,246969.447,00,00,00,3724.8111159,12204.7034826,-42.892,-2.634,-14.574,-1.270,00
$GPGGA,203552.447,3724.80153880,N,12204.70550130,W,1,37,3.15,-0.50,M,-32.95,M,0.0,*52
$GPFPD,1151,246970.447,00,00,00,3724.8015388,12204.7055013,-33.457,-3.246,-14.782,1.370,00
$GPGGA,203553.447,3724.79229575,N,12204.70859428,W,1,38,1.63,0.41,M,-32.95,M,0.0,*75
$GPFPD,1151,246971.447,00,00,00,3724.7922957,12204.7085943,-32.546,-5.597,-13.987,0.995,00
$GPGGA,203554.447,3724.78402998,N,12204.71451391,W,1,39,1.44,1.52,M,-32.95,M,0.0,*74
$GPFPD,1151,246972.447,00,00,00,3724.7840300,12204.7145139,-31.432,-9.515,-12.475,1.228,00
$GPGGA,203555.447,3724.77721491,N,12204.72391500,W,1,40,1.20,1.85,M,-32.96,M,0.0,*7F
$GPFPD,1151,246973.447,00,00,00,3724.7772149,12204.7239150,-31.106,-12.617,-9.038,0.009,00
$GPGGA,203556.447,3724.77189038,N,12204.73426665,W,1,38,0.89,1.89,M,-32.96,M,0.0,*74
$GPFPD,1151,246974.447,00,00,00,3724.7718904,12204.7342666,-31.068,-15.294,-4.598,-0.436,00
$GPGGA,203557.447,3724.76973478,N,12204.74514701,W,1,36,0.90,0.82,M,-32.96,M,0.0,*71
$GPFPD,1151,246975.447,00,00,00,3724.7697348,12204.7451470,-32.135,-17.098,-0.214,-2.367,00
$GPGGA,203558.447,3724.77003257,N,12204.75596529,W,1,39,1.05,-0.48,M,-32.96,M,0.0,*50
$GPFPD,1151,246976.447,00,00,00,3724.7700326,12204.7559653,-33.439,-17.419,2.637,-0.910,00
$GPGGA,203559.447,3724.77231218,N,12204.76767406,W,1,39,1.13,-0.20,M,-32.96,M,0.0,*53
$GPFPD,1151,246977.447,00,00,00,3724.7723122,12204.7676741,-33.156,-17.967,4.546,-0.029,00
$GPGGA,203600.447,3724.77551957,N,12204.77999270,W,1,38,1.21,-1.38,M,-32.96,M,0.0,*5C
$GPFPD,1151,246978.447,00,00,00,3724.7755196,12204.7799927,-34.340,-18.724,6.849,-2.973,00
$GPGGA,203601.447,3724.77963668,N,12204.79282935,W,1,40,1.09,-2.66,M,-32.96,M,0.0,*5B
$GPFPD,1151,246979.447,00,00,00,3724.7796367,12204.7928293,-35.613,-18.874,8.665,-0.422,00
$GPGGA,203602.447,3724.77963668,N,12204.79282935,W,3,39,3.04,-2.66,M,-32.96,M,0.0,*5B
$GPFPD,1151,246980.447,00,00,00,3724.7796367,12204.7928293,-35.613,-18.874,8.665,-0.422,00
$GPGGA,203603.447,3724.78499789,N,12204.80661830,W,1,38,3.82,-0.47,M,-32.96,M,0.0,*54
$GPFPD,1151,246981.447,00,00,00,3724.7849979,12204.8066183,-33.430,-20.787,12.162,0.015,00
$GPGGA,203604.447,3724.79222709,N,12204.82127005,W,1,39,3.82,0.19,M,-32.96,M,0.0,*72
$GPFPD,1151,246982.447,00,00,00,3724.7922271,12204.8212701,-32.767,-20.842,12.959,1.653,00
$GPGGA,203605.447,3724.79222709,N,12204.82127005,W,3,38,3.13,0.19,M,-32.96,M,0.0,*78
$GPFPD,1151,246983.447,00,00,00,3724.7922271,12204.8212701,-32.767,-20.842,12.959,1.653,00
$GPGGA,203606.447,3724.79908123,N,12204.83568325,W,1,39,10.72,0.54,M,-32.96,M,0.0,*46
$GPFPD,1151,246984.447,00,00,00,3724.7990812,12204.8356833,-32.423,-19.985,12.990,1.084,00
$GPGGA,203607.447,3724.80717400,N,12204.85014520,W,1,31,38.10,-1.84,M,-32.96,M,0.0,*69
$GPFPD,1151,246985.447,00,00,00,3724.8071740,12204.8501452,-34.804,-18.268,14.564,-5.806,00
$GPGGA,203608.447,3724.80717400,N,12204.85014520,W,3,34,6.54,-1.84,M,-32.96,M,0.0,*5C
$GPFPD,1151,246986.447,00,00,00,3724.8071740,12204.8501452,-34.804,-18.268,14.564,-5.806,00
$GPGGA,203609.447,3724.81547431,N,12204.86340893,W,1,34,31.35,-3.16,M,-32.96,M,0.0,*65
$GPFPD,1151,246987.447,00,00,00,3724.8154743,12204.8634089,-36.117,-15.758,14.835,-2.956,00
$GPGGA,203610.447,3724.82462862,N,12204.87498219,W,1,34,11.00,-2.87,M,-32.96,M,0.0,*64
$GPFPD,1151,246988.447,00,00,00,3724.8246286,12204.8749822,-35.832,-14.668,15.318,-7.547,00
$GPGGA,203611.447,3724.83328532,N,12204.88664246,W,1,37,32.91,-1.89,M,-32.96,M,0.0,*66
$GPFPD,1151,246989.447,00,00,00,3724.8332853,12204.8866425,-34.853,-16.451,15.641,1.795,00
$GPGGA,203612.447,3724.83328532,N,12204.88664246,W,3,40,10.76,-1.89,M,-32.96,M,0.0,*6E
$GPFPD,1151,246990.447,00,00,00,3724.8332853,12204.8866425,-34.853,-16.451,15.641,1.795,00
$GPGGA,203613.447,3724.84133818,N,12204.89902694,W,1,38,80.07,-1.17,M,-32.96,M,0.0,*65
$GPFPD,1151,246991.447,00,00,00,3724.8413382,12204.8990269,-34.127,-18.231,13.574,0.937,00
$GPGGA,203614.447,3724.84823716,N,12204.91228151,W,1,37,92.21,-1.17,M,-32.96,M,0.0,*67
$GPFPD,1151,246992.447,00,00,00,3724.8482372,12204.9122815,-34.133,-18.461,12.424,0.236,00
$GPGGA,203615.447,3724.85483945,N,12204.92396012,W,1,39,24.15,-2.20,M,-32.96,M,0.0,*6B
$GPFPD,1151,246993.447,00,00,00,3724.8548394,12204.9239601,-35.166,-16.936,11.843,-1.753,00
$GPGGA,203616.447,3724.86168606,N,12204.93693297,W,1,39,24.50,-1.90,M,-32.96,M,0.0,*64
$GPFPD,1151,246994.447,00,00,00,3724.8616861,12204.9369330,-34.863,-20.351,10.865,1.429,00
$GPGGA,203617.447,3724.86306222,N,12204.93811604,W,1,40,23.83,-2.72,M,-32.96,M,0.0,*6F
$GPFPD,1151,246995.447,00,00,00,3724.8630622,12204.9381160,-35.680,2.081,0.808,-9.081,00
$GPGGA,203618.447,3724.87348867,N,12204.98109319,W,1,39,18.07,-2.16,M,-32.96,M,0.0,*6A
$GPFPD,1151,246996.447,00,00,00,3724.8734887,12204.9810932,-35.127,-40.366,29.900,3.406,00
$GPGGA,203619.447,3724.87348867,N,12204.98109319,W,3,33,3.98,-2.16,M,-32.96,M,0.0,*5F
$GPFPD,1151,246997.447,00,00,00,3724.8734887,12204.9810932,-35.127,-40.366,29.900,3.406,00
$GPGGA,203620.447,3724.87433001,N,12204.99436888,W,1,33,67.33,-1.95,M,-32.96,M,0.0,*64
$GPFPD,1151,246998.447,00,00,00,3724.8743300,12204.9943689,-34.916,-17.803,11.607,0.397,00
$GPGGA,203621.447,3724.91683670,N,12205.05207037,W,1,39,2.14,-2.69,M,-32.96,M,0.0,*5B
$GPFPD,1151,246999.447,00,00,00,3724.9168367,12205.0520704,-35.657,-21.946,20.021,-10.124,00
$GPGGA,203622.447,3724.92863294,N,12205.06778224,W,1,39,1.78,-3.82,M,-32.96,M,0.0,*56
$GPFPD,1151,247000.447,00,00,00,3724.9286329,12205.0677822,-36.789,-20.549,17.244,-0.101,00
$GPGGA,203623.447,3724.93934996,N,12205.08310777,W,1,36,1.44,1.98,M,-32.96,M,0.0,*7F
$GPFPD,1151,247001.447,00,00,00,3724.9393500,12205.0831078,-30.990,-20.775,17.736,0.092,00
$GPGGA,203624.447,3724.94956433,N,12205.09837519,W,1,36,0.87,5.42,M,-32.97,M,0.0,*70
$GPFPD,1151,247002.447,00,00,00,3724.9495643,12205.0983752,-27.548,-21.111,18.186,-0.327,00
$GPGGA,203625.447,3724.95957312,N,12205.11318412,W,1,33,1.05,5.97,M,-32.97,M,0.0,*76
$GPFPD,1151,247003.447,00,00,00,3724.9595731,12205.1131841,-26.994,-21.435,18.690,0.058,00
$GPGGA,203626.447,3724.97018669,N,12205.12814540,W,1,38,1.05,7.30,M,-32.97,M,0.0,*7A
$GPFPD,1151,247004.447,00,00,00,3724.9701867,12205.1281454,-25.663,-21.589,19.095,-0.324,00
$GPGGA,203627.447,3724.98042197,N,12205.14291844,W,1,34,1.04,7.74,M,-32.97,M,0.0,*78
$GPFPD,1151,247005.447,00,00,00,3724.9804220,12205.1429184,-25.226,-21.932,19.394,-0.404,00
$GPGGA,203628.447,3724.99131199,N,12205.15792546,W,1,34,0.92,8.27,M,-32.97,M,0.0,*72
$GPFPD,1151,247006.447,00,00,00,3724.9913120,12205.1579255,-24.701,-21.978,19.816,-0.043,00
$GPGGA,203629.447,3725.00215837,N,12205.17305342,W,1,34,1.05,8.31,M,-32.97,M,0.0,*78
$GPFPD,1151,247007.447,00,00,00,3725.0021584,12205.1730534,-24.654,-22.508,20.044,-1.069,00
$GPGGA,203630.447,3725.01313451,N,12205.18846472,W,1,36,1.81,7.40,M,-32.97,M,0.0,*7A
$GPFPD,1151,247008.447,00,00,00,3725.0131345,12205.1884647,-25.569,-22.664,20.256,-1.380,00
$GPGGA,203631.447,3725.02436681,N,12205.20435057,W,1,32,1.02,7.62,M,-32.97,M,0.0,*78
$GPFPD,1151,247009.447,00,00,00,3725.0243668,12205.2043506,-25.349,-23.341,20.922,0.031,00
$GPGGA,203632.447,3725.03584142,N,12205.22031291,W,1,32,1.02,7.62,M,-32.97,M,0.0,*70
$GPFPD,1151,247010.447,00,00,00,3725.0358414,12205.2203129,-25.345,-23.468,21.108,-0.280,00
$GPGGA,203633.447,3725.04731433,N,12205.23627463,W,1,32,1.23,7.83,M,-32.97,M,0.0,*7E
$GPFPD,1151,247011.447,00,00,00,3725.0473143,12205.2362746,-25.136,-23.576,21.412,-0.536,00
$GPGGA,203634.447,3725.05900714,N,12205.25230863,W,1,29,1.48,7.40,M,-32.97,M,0.0,*72
$GPFPD,1151,247012.447,00,00,00,3725.0590071,12205.2523086,-25.570,-23.662,21.701,-0.376,00
$GPGGA,203635.447,3725.07086188,N,12205.26851864,W,1,36,1.01,7.36,M,-32.97,M,0.0,*7E
$GPFPD,1151,247013.447,00,00,00,3725.0708619,12205.2685186,-25.604,-23.823,21.762,-0.120,00
$GPGGA,203636.447,3725.08257754,N,12205.28458911,W,1,32,1.02,7.13,M,-32.97,M,0.0,*73
$GPFPD,1151,247014.447,00,00,00,3725.0825775,12205.2845891,-25.839,-23.695,21.689,-0.367,00
$GPGGA,203637.447,3725.09424129,N,12205.30059655,W,1,34,1.02,6.88,M,-32.97,M,0.0,*7B
$GPFPD,1151,247015.447,00,00,00,3725.0942413,12205.3005966,-26.093,-23.489,21.386,-0.292,00
$GPGGA,203638.447,3725.10558378,N,12205.31640949,W,1,33,0.91,6.54,M,-32.97,M,0.0,*70
$GPFPD,1151,247016.447,00,00,00,3725.1055838,12205.3164095,-26.427,-23.376,20.847,-0.353,00
$GPGGA,203639.447,3725.11678678,N,12205.33206763,W,1,36,0.81,6.08,M,-32.97,M,0.0,*7B
$GPFPD,1151,247017.447,00,00,00,3725.1167868,12205.3320676,-26.887,-22.933,20.843,-0.419,00
$GPGGA,203640.447,3725.12788090,N,12205.34763548,W,1,37,0.74,5.69,M,-32.97,M,0.0,*7D
$GPFPD,1151,247018.447,00,00,00,3725.1278809,12205.3476355,-27.282,-22.855,20.649,-0.381,00
$GPGGA,203641.447,3725.13897207,N,12205.36292917,W,1,37,0.80,5.53,M,-32.97,M,0.0,*7D
$GPFPD,1151,247019.447,00,00,00,3725.1389721,12205.3629292,-27.438,-22.527,20.281,-0.319,00
$GPGGA,203642.447,3725.14993999,N,12205.37821712,W,1,35,0.83,5.05,M,-32.97,M,0.0,*7A
$GPFPD,1151,247020.447,00,00,00,3725.1499400,12205.3782171,-27.916,-22.411,19.971,-0.370,00
$GPGGA,203643.447,3725.16075800,N,12205.39317810,W,1,36,0.91,4.99,M,-32.97,M,0.0,*70
$GPFPD,1151,247021.447,00,00,00,3725.1607580,12205.3931781,-27.984,-21.900,19.862,-0.250,00
$GPGGA,203644.447,3725.17140914,N,12205.40790101,W,1,38,0.91,4.82,M,-32.97,M,0.0,*7D
$GPFPD,1151,247022.447,00,00,00,3725.1714091,12205.4079010,-28.154,-21.568,19.511,-0.231,00
$GPGGA,203645.447,3725.18178567,N,12205.42227286,W,1,35,0.83,4.85,M,-32.97,M,0.0,*7E
$GPFPD,1151,247023.447,00,00,00,3725.1817857,12205.4222729,-28.126,-21.089,19.242,-0.156,00
$GPGGA,203646.447,3725.19217886,N,12205.43646819,W,1,38,1.03,4.81,M,-32.97,M,0.0,*7A
$GPFPD,1151,247024.447,00,00,00,3725.1921789,12205.4364682,-28.158,-20.810,19.062,-0.135,00
$GPGGA,203647.447,3725.20243646,N,12205.45041207,W,1,31,0.90,4.70,M,-32.97,M,0.0,*7C
$GPFPD,1151,247025.447,00,00,00,3725.2024365,12205.4504121,-28.276,-20.616,18.700,-0.130,00
$GPGGA,203648.447,3725.21241257,N,12205.46424545,W,1,37,0.79,4.39,M,-32.97,M,0.0,*7D
$GPFPD,1151,247026.447,00,00,00,3725.2124126,12205.4642455,-28.584,-20.562,18.094,-0.202,00
$GPGGA,203649.447,3725.22217711,N,12205.47798659,W,1,38,0.79,4.25,M,-32.97,M,0.0,*72
$GPFPD,1151,247027.447,00,00,00,3725.2221771,12205.4779866,-28.726,-20.298,18.004,-0.230,00
$GPGGA,203650.447,3725.23201838,N,12205.49165455,W,1,37,0.88,4.00,M,-32.97,M,0.0,*7A
$GPFPD,1151,247028.447,00,00,00,3725.2320184,12205.4916546,-28.968,-20.020,18.021,-0.272,00
$GPGGA,203651.447,3725.24191804,N,12205.50529597,W,1,35,0.86,4.11,M,-32.97,M,0.0,*7E
$GPFPD,1151,247029.447,00,00,00,3725.2419180,12205.5052960,-28.865,-20.117,18.210,-0.200,00
$GPGGA,203652.447,3725.25173047,N,12205.51889875,W,1,35,0.83,3.90,M,-32.97,M,0.0,*73
$GPFPD,1151,247030.447,00,00,00,3725.2517305,12205.5188988,-29.076,-20.093,17.983,-0.249,00
$GPGGA,203653.447,3725.26127255,N,12205.53220965,W,1,33,1.08,3.47,M,-32.97,M,0.0,*74
$GPFPD,1151,247031.447,00,00,00,3725.2612726,12205.5322097,-29.506,-19.735,17.627,-0.312,00
$GPGGA,203654.447,3725.27028925,N,12205.54497368,W,1,27,1.15,2.88,M,-32.97,M,0.0,*71
$GPFPD,1151,247032.447,00,00,00,3725.2702892,12205.5449737,-30.098,-17.855,15.607,-0.427,00
$GPGGA,203655.447,3725.27875534,N,12205.55640242,W,1,27,1.15,2.70,M,-32.97,M,0.0,*7B
$GPFPD,1151,247033.447,00,00,00,3725.2787553,12205.5564024,-30.272,-16.245,15.031,-0.323,00
$GPGGA,203656.447,3725.28698242,N,12205.56634825,W,1,31,1.99,3.55,M,-32.97,M,0.0,*72
$GPFPD,1151,247034.447,00,00,00,3725.2869824,12205.5663482,-29.428,-14.616,14.361,0.062,00
$GPGGA,203657.447,3725.29473043,N,12205.57503586,W,1,41,1.14,0.89,M,-32.97,M,0.0,*74
$GPFPD,1151,247035.447,00,00,00,3725.2947304,12205.5750359,-32.084,-12.852,15.272,-4.452,00
$GPGGA,203658.447,3725.30326800,N,12205.58270587,W,1,40,1.34,-3.78,M,-32.97,M,0.0,*55
$GPFPD,1151,247036.447,00,00,00,3725.3032680,12205.5827059,-36.758,-9.097,16.028,-6.899,00
$GPGGA,203659.447,3725.31168999,N,12205.58614060,W,1,38,0.95,-6.04,M,-32.97,M,0.0,*5D
$GPFPD,1151,247037.447,00,00,00,3725.3116900,12205.5861406,-39.011,-2.799,14.688,0.014,00
$GPGGA,203700.447,3725.31935467,N,12205.58509494,W,1,41,0.76,-1.46,M,-32.97,M,0.0,*5E
$GPFPD,1151,247038.447,00,00,00,3725.3193547,12205.5850949,-34.439,2.266,13.134,0.049,00
$GPGGA,203701.447,3725.32608345,N,12205.58238872,W,1,40,1.06,-1.32,M,-32.97,M,0.0,*5F
$GPFPD,1151,247039.447,00,00,00,3725.3260834,12205.5823887,-34.291,5.190,12.422,-0.125,00
$GPGGA,203702.447,3725.33179935,N,12205.57677261,W,1,39,1.02,0.25,M,-32.97,M,0.0,*79
$GPFPD,1151,247040.447,00,00,00,3725.3317994,12205.5767726,-32.726,9.365,8.825,0.345,00
$GPGGA,203703.447,3725.33582579,N,12205.56848083,W,1,37,1.01,1.08,M,-32.97,M,0.0,*72
$GPFPD,1151,247041.447,00,00,00,3725.3358258,12205.5684808,-31.890,12.229,6.202,-0.232,00
$GPGGA,203704.447,3725.33821397,N,12205.55965385,W,1,39,0.95,1.55,M,-32.97,M,0.0,*75
$GPFPD,1151,247042.447,00,00,00,3725.3382140,12205.5596538,-31.423,13.895,1.337,0.205,00
$GPGGA,203705.447,3725.33753551,N,12205.55040537,W,1,39,0.90,2.57,M,-32.97,M,0.0,*77
$GPFPD,1151,247043.447,00,00,00,3725.3375355,12205.5504054,-30.404,12.720,-3.041,0.782,00
$GPGGA,203706.447,3725.33619181,N,12205.54259803,W,1,39,1.32,2.01,M,-32.97,M,0.0,*79
$GPFPD,1151,247044.447,00,00,00,3725.3361918,12205.5425980,-30.960,9.363,-2.488,-2.790,00
$GPGGA,203707.447,3725.33215804,N,12205.53629171,W,1,41,3.45,-0.88,M,-32.97,M,0.0,*5F
$GPFPD,1151,247045.447,00,00,00,3725.3321580,12205.5362917,-33.853,9.218,-6.733,-11.706,00
$GPGGA,203708.447,3725.32613766,N,12205.53115453,W,1,40,1.82,-1.02,M,-32.97,M,0.0,*5E
$GPFPD,1151,247046.447,00,00,00,3725.3261377,12205.5311545,-33.996,7.175,-7.706,-12.822,00
$GPGGA,203709.447,3725.32102799,N,12205.52762801,W,1,37,1.89,-12.68,M,-32.97,M,0.0,*61
$GPFPD,1151,247047.447,00,00,00,3725.3210280,12205.5276280,-45.655,3.471,-8.164,-11.139,00
$GPGGA,203710.447,3725.31577077,N,12205.52684998,W,1,37,3.45,-6.62,M,-32.97,M,0.0,*5E
$GPFPD,1151,247048.447,00,00,00,3725.3157708,12205.5268500,-39.591,0.946,-8.398,-6.971,00
$GPGGA,203711.447,3725.31103062,N,12205.52908302,W,1,38,1.19,-2.66,M,-32.97,M,0.0,*5A
$GPFPD,1151,247049.447,00,00,00,3725.3110306,12205.5290830,-35.634,-2.141,-9.271,-2.243,00
$GPGGA,203712.447,3725.30520450,N,12205.53139238,W,1,41,1.60,-3.15,M,-32.97,M,0.0,*5E
$GPFPD,1151,247050.447,00,00,00,3725.3052045,12205.5313924,-36.121,-3.164,-10.955,-1.990,00
$GPGGA,203713.447,3725.29832016,N,12205.53320230,W,1,41,2.00,-2.55,M,-32.97,M,0.0,*5D
$GPFPD,1151,247051.447,00,00,00,3725.2983202,12205.5332023,-35.518,-3.308,-11.783,-4.538,00
$GPGGA,203714.447,3725.29126066,N,12205.53579319,W,1,42,1.87,-5.95,M,-32.97,M,0.0,*55
$GPFPD,1151,247052.447,00,00,00,3725.2912607,12205.5357932,-38.924,-4.578,-13.051,-3.985,00
$GPGGA,203715.447,3725.28303717,N,12205.53949714,W,1,41,3.02,-4.14,M,-32.97,M,0.0,*53
$GPFPD,1151,247053.447,00,00,00,3725.2830372,12205.5394971,-37.116,-5.853,-16.209,0.256,00
$GPGGA,203716.447,3725.27253940,N,12205.54418524,W,1,39,1.19,-2.73,M,-32.97,M,0.0,*58
$GPFPD,1151,247054.447,00,00,00,3725.2725394,12205.5441852,-35.699,-7.049,-17.185,0.006,00
$GPGGA,203717.447,3725.26253275,N,12205.54888192,W,1,39,0.88,-1.72,M,-32.97,M,0.0,*52
$GPFPD,1151,247055.447,00,00,00,3725.2625327,12205.5488819,-34.690,-7.020,-16.949,-0.265,00
$GPGGA,203718.447,3725.25393456,N,12205.55347269,W,1,32,1.69,-3.85,M,-32.97,M,0.0,*55
$GPFPD,1151,247056.447,00,00,00,3725.2539346,12205.5534727,-36.824,-6.927,-15.719,0.001,00
$GPGGA,203719.447,3725.24557767,N,12205.55780461,W,1,40,1.29,-4.85,M,-32.98,M,0.0,*52
$GPFPD,1151,247057.447,00,00,00,3725.2455777,12205.5578046,-37.830,-6.673,-12.696,-1.832,00
$GPGGA,203720.447,3725.23884150,N,12205.56138729,W,1,41,1.29,-7.07,M,-32.98,M,0.0,*5F
$GPFPD,1151,247058.447,00,00,00,3725.2388415,12205.5613873,-40.050,-4.952,-10.486,-3.771,00
$GPGGA,203721.447,3725.23303059,N,12205.56428141,W,1,39,1.58,-11.12,M,-32.98,M,0.0,*64
$GPFPD,1151,247059.447,00,00,00,3725.2330306,12205.5642814,-44.099,-3.844,-8.159,-5.672,00
$GPGGA,203722.447,3725.22886847,N,12205.56660575,W,1,40,1.28,-12.69,M,-32.98,M,0.0,*6C
$GPFPD,1151,247060.447,00,00,00,3725.2288685,12205.5666057,-45.662,-2.552,-6.702,-1.487,00
$GPGGA,203723.447,3725.22569325,N,12205.56829911,W,1,38,1.52,-6.36,M,-32.98,M,0.0,*5E
$GPFPD,1151,247061.447,00,00,00,3725.2256933,12205.5682991,-39.339,-2.328,-3.142,-4.464,00
$GPGGA,203724.447,3725.22238809,N,12205.56923480,W,1,38,1.57,-7.13,M,-32.98,M,0.0,*52
$GPFPD,1151,247062.447,00,00,00,3725.2223881,12205.5692348,-40.106,-1.532,-3.354,-7.306,00
$GPGGA,203725.447,3725.22001471,N,12205.57009067,W,1,37,1.13,-10.30,M,-32.98,M,0.0,*6D
$GPFPD,1151,247063.447,00,00,00,3725.2200147,12205.5700907,-43.273,-0.949,-3.337,-0.382,00
$GPGGA,203726.447,3725.21861933,N,12205.57018755,W,1,38,1.22,-6.64,M,-32.98,M,0.0,*55
$GPFPD,1151,247064.447,00,00,00,3725.2186193,12205.5701875,-39.613,-0.003,-2.600,-0.977,00
$GPGGA,203727.447,3725.21810221,N,12205.57041945,W,1,36,1.36,-5.00,M,-32.98,M,0.0,*53
$GPFPD,1151,247065.447,00,00,00,3725.2181022,12205.5704195,-37.981,-0.237,-0.604,-0.422,00
$GPGGA,203728.447,3725.21807894,N,12205.57060810,W,1,38,1.39,-3.92,M,-32.98,M,0.0,*50
$GPFPD,1151,247066.447,00,00,00,3725.2180789,12205.5706081,-36.892,-0.053,-0.130,-0.151,00
$GPGGA,203729.447,3725.21782753,N,12205.57056068,W,1,36,1.61,-2.45,M,-32.98,M,0.0,*5D
$GPFPD,1151,247067.447,00,00,00,3725.2178275,12205.5705607,-35.431,-0.267,-0.797,0.045,00
$GPGGA,203730.447,3725.21684451,N,12205.57080118,W,1,39,0.95,-1.62,M,-32.98,M,0.0,*5D
$GPFPD,1151,247068.447,00,00,00,3725.2168445,12205.5708012,-34.595,-0.538,-1.513,0.024,00
$GPGGA,203731.447,3725.21611776,N,12205.57115654,W,1,39,1.16,-0.81,M,-32.98,M,0.0,*52
$GPFPD,1151,247069.447,00,00,00,3725.2161178,12205.5711565,-33.785,-0.668,-1.439,-0.057,00
$GPGGA,203732.447,3725.21547263,N,12205.57148272,W,1,39,0.83,0.22,M,-32.98,M,0.0,*71
$GPFPD,1151,247070.447,00,00,00,3725.2154726,12205.5714827,-32.754,-0.514,-1.353,-0.044,00
$GPGGA,203733.447,3725.21477903,N,12205.57180693,W,1,38,0.73,1.08,M,-32.98,M,0.0,*77
$GPFPD,1151,247071.447,00,00,00,3725.2147790,12205.5718069,-31.893,-0.245,-1.172,0.007,00
$GPGGA,203734.447,3725.21428424,N,12205.57199500,W,1,38,0.77,1.07,M,-32.98,M,0.0,*78
$GPFPD,1151,247072.447,00,00,00,3725.2142842,12205.5719950,-31.912,-0.308,-0.638,-0.039,00
$GPGGA,203735.447,3725.21401430,N,12205.57203472,W,1,38,0.77,1.32,M,-32.98,M,0.0,*75
$GPFPD,1151,247073.447,00,00,00,3725.2140143,12205.5720347,-31.659,-0.165,-0.248,-0.025,00
$GPGGA,203736.447,3725.21386388,N,12205.57202829,W,1,40,0.72,1.64,M,-32.98,M,0.0,*70
$GPFPD,1151,247074.447,00,00,00,3725.2138639,12205.5720283,-31.341,0.136,-0.259,0.011,00
$GPGGA,203737.447,3725.21381429,N,12205.57189456,W,1,39,0.78,1.63,M,-32.98,M,0.0,*7D
$GPFPD,1151,247075.447,00,00,00,3725.2138143,12205.5718946,-31.346,0.052,-0.171,0.048,00
$GPGGA,203738.447,3725.21385749,N,12205.57193120,W,1,40,0.74,1.79,M,-32.98,M,0.0,*75
$GPFPD,1151,247076.447,00,00,00,3725.2138575,12205.5719312,-31.188,-0.067,0.029,-0.058,00
$GPGGA,203739.447,3725.21389102,N,12205.57192074,W,1,38,1.15,2.30,M,-32.98,M,0.0,*77
$GPFPD,1151,247077.447,00,00,00,3725.2138910,12205.5719207,-30.673,-0.017,0.053,-0.140,00
$GPGGA,203740.447,3725.21392900,N,12205.57189786,W,1,40,1.27,2.44,M,-32.98,M,0.0,*74
$GPFPD,1151,247078.447,00,00,00,3725.2139290,12205.5718979,-30.533,-0.024,0.007,-0.089,00
$GPGGA,203741.447,3725.21395286,N,12205.57193782,W,1,38,1.29,2.56,M,-32.98,M,0.0,*7A
$GPFPD,1151,247079.447,00,00,00,3725.2139529,12205.5719378,-30.419,-0.021,0.000,-0.059,00
$GPGGA,203742.447,3725.21393307,N,12205.57189674,W,1,38,0.91,2.87,M,-32.98,M,0.0,*7A
$GPFPD,1151,247080.447,00,00,00,3725.2139331,12205.5718967,-30.102,-0.004,-0.005,0.005,00
$GPGGA,203743.447,3725.21383129,N,12205.57186277,W,1,37,0.80,3.22,M,-32.98,M,0.0,*7D
$GPFPD,1151,247081.447,00,00,00,3725.2138313,12205.5718628,-29.761,-0.010,-0.014,0.010,00
$GPGGA,203744.447,3725.21379462,N,12205.57177149,W,1,40,0.79,3.53,M,-32.98,M,0.0,*75
$GPFPD,1151,247082.447,00,00,00,3725.2137946,12205.5717715,-29.450,0.004,-0.042,0.069,00
$GPGGA,203745.447,3725.21386940,N,12205.57179792,W,1,40,0.78,3.75,M,-32.98,M,0.0,*72
$GPFPD,1151,247083.447,00,00,00,3725.2138694,12205.5717979,-29.223,-0.005,-0.025,0.051,00
$GPGGA,203746.447,3725.21384471,N,12205.57182765,W,1,41,0.71,3.99,M,-32.98,M,0.0,*7A
$GPFPD,1151,247084.447,00,00,00,3725.2138447,12205.5718276,-28.989,-0.031,-0.027,0.022,00
$GPGGA,203747.447,3725.21357417,N,12205.57190722,W,1,39,1.09,4.22,M,-32.98,M,0.0,*73
$GPFPD,1151,247085.447,00,00,00,3725.2135742,12205.5719072,-28.758,-0.150,-0.199,0.003,00
$GPGGA,203748.447,3725.21324084,N,12205.57221712,W,1,33,1.66,3.38,M,-32.98,M,0.0,*73
$GPFPD,1151,247086.447,00,00,00,3725.2132408,12205.5722171,-29.599,-0.618,-1.293,-0.056,00
$GPGGA,203749.447,3725.21210943,N,12205.57279232,W,1,39,0.89,3.44,M,-32.98,M,0.0,*7D
$GPFPD,1151,247087.447,00,00,00,3725.2121094,12205.5727923,-29.535,-0.910,-2.759,0.008,00
$GPGGA,203750.447,3725.21026549,N,12205.57359933,W,1,40,0.80,3.51,M,-32.98,M,0.0,*7E
$GPFPD,1151,247088.447,00,00,00,3725.2102655,12205.5735993,-29.464,-1.328,-4.298,0.051,00
$GPGGA,203751.447,3725.20753856,N,12205.57476413,W,1,40,0.77,3.59,M,-32.98,M,0.0,*7D
$GPFPD,1151,247089.447,00,00,00,3725.2075386,12205.5747641,-29.390,-2.192,-5.721,0.042,00
$GPGGA,203752.447,3725.20403226,N,12205.57642476,W,1,39,0.88,3.30,M,-32.98,M,0.0,*72
$GPFPD,1151,247090.447,00,00,00,3725.2040323,12205.5764248,-29.675,-2.845,-6.849,-0.074,00
$GPGGA,203753.447,3725.19972667,N,12205.57850663,W,1,39,0.89,2.96,M,-32.98,M,0.0,*74
$GPFPD,1151,247091.447,00,00,00,3725.1997267,12205.5785066,-30.021,-2.897,-7.259,-0.310,00
$GPGGA,203754.447,3725.19585576,N,12205.58046981,W,1,40,1.04,2.72,M,-32.98,M,0.0,*77
$GPFPD,1151,247092.447,00,00,00,3725.1958558,12205.5804698,-30.253,-2.818,-6.770,-0.323,00
$GPGGA,203755.447,3725.19235945,N,12205.58229598,W,1,41,0.92,2.46,M,-32.98,M,0.0,*71
$GPFPD,1151,247093.447,00,00,00,3725.1923595,12205.5822960,-30.517,-2.521,-5.813,-0.351,00
$GPGGA,203756.447,3725.18951918,N,12205.58375577,W,1,41,0.71,2.14,M,-32.98,M,0.0,*71
$GPFPD,1151,247094.447,00,00,00,3725.1895192,12205.5837558,-30.835,-1.668,-4.692,-0.388,00
$GPGGA,203757.447,3725.18745197,N,12205.58475892,W,1,41,0.74,1.95,M,-32.98,M,0.0,*7A
$GPFPD,1151,247095.447,00,00,00,3725.1874520,12205.5847589,-31.033,-1.440,-3.438,-0.331,00
$GPGGA,203758.447,3725.18586841,N,12205.58555967,W,1,41,0.67,1.75,M,-32.98,M,0.0,*7E
$GPFPD,1151,247096.447,00,00,00,3725.1858684,12205.5855597,-31.224,-0.899,-2.193,-0.283,00
$GPGGA,203759.447,3725.18525406,N,12205.58599659,W,1,33,1.10,1.71,M,-32.98,M,0.0,*7B
$GPFPD,1151,247097.447,00,00,00,3725.1852541,12205.5859966,-31.268,-0.542,-1.138,-0.241,00
$GPGGA,203800.447,3725.18490424,N,12205.58615346,W,1,39,0.77,1.58,M,-32.98,M,0.0,*7A
$GPFPD,1151,247098.447,00,00,00,3725.1849042,12205.5861535,-31.402,-0.196,-0.157,-0.235,00
$GPGGA,203801.447,3725.18481240,N,12205.58627677,W,1,37,0.73,1.42,M,-32.98,M,0.0,*78
$GPFPD,1151,247099.447,00,00,00,3725.1848124,12205.5862768,-31.554,-0.123,0.130,-0.236,00
$GPGGA,203802.447,3725.18485425,N,12205.58628349,W,1,37,0.77,1.33,M,-32.98,M,0.0,*7F
$GPFPD,1151,247100.447,00,00,00,3725.1848542,12205.5862835,-31.646,-0.090,0.050,-0.214,00
$GPGGA,203803.447,3725.18499098,N,12205.58620190,W,1,33,0.84,1.35,M,-32.98,M,0.0,*71
$GPFPD,1151,247101.447,00,00,00,3725.1849910,12205.5862019,-31.624,-0.064,0.056,-0.186,00
$GPGGA,203804.447,3725.18512691,N,12205.58613403,W,1,37,0.77,1.40,M,-32.98,M,0.0,*7E
$GPFPD,1151,247102.447,00,00,00,3725.1851269,12205.5861340,-31.574,-0.051,0.042,-0.154,00
$GPGGA,203805.447,3725.18528803,N,12205.58622639,W,1,39,0.86,1.49,M,-32.98,M,0.0,*73
$GPFPD,1151,247103.447,00,00,00,3725.1852880,12205.5862264,-31.490,-0.053,0.038,-0.123,00
$GPGGA,203806.447,3725.18516097,N,12205.58613951,W,1,38,0.70,1.60,M,-32.98,M,0.0,*78
$GPFPD,1151,247104.447,00,00,00,3725.1851610,12205.5861395,-31.381,-0.037,0.025,-0.077,00
$GPGGA,203807.447,3725.18515536,N,12205.58609223,W,1,38,0.71,1.66,M,-32.98,M,0.0,*76
$GPFPD,1151,247105.447,00,00,00,3725.1851554,12205.5860922,-31.318,-0.038,0.018,-0.063,00
$GPGGA,203808.447,3725.18510288,N,12205.58598963,W,1,39,0.77,1.82,M,-32.98,M,0.0,*77
$GPFPD,1151,247106.447,00,00,00,3725.1851029,12205.5859896,-31.163,-0.029,0.015,-0.043,00
$GPGGA,203809.447,3725.18499717,N,12205.58590059,W,1,39,0.70,1.84,M,-32.98,M,0.0,*7C
$GPFPD,1151,247107.447,00,00,00,3725.1849972,12205.5859006,-31.138,-0.023,0.005,-0.030,00
$GPGGA,203810.447,3725.18478560,N,12205.58578428,W,1,39,0.72,1.99,M,-32.98,M,0.0,*73
$GPFPD,1151,247108.447,00,00,00,3725.1847856,12205.5857843,-30.987,-0.019,-0.005,-0.017,00
$GPGGA,203811.447,3725.18476248,N,12205.58571753,W,1,39,0.78,2.10,M,-32.98,M,0.0,*7F
$GPFPD,1151,247109.447,00,00,00,3725.1847625,12205.5857175,-30.880,-0.014,-0.005,-0.006,00
$GPGGA,203812.447,3725.18478930,N,12205.58575274,W,1,40,0.83,2.15,M,-32.98,M,0.0,*7D
$GPFPD,1151,247110.447,00,00,00,3725.1847893,12205.5857527,-30.829,-0.015,-0.007,-0.002,00
$GPGGA,203813.447,3725.18527613,N,12205.58609352,W,1,39,1.42,-0.42,M,-32.98,M,0.0,*5B
$GPFPD,1151,247111.447,00,00,00,3725.1852761,12205.5860935,-33.402,-0.711,1.451,-3.794,00
$GPGGA,203814.447,3725.18585863,N,12205.58641575,W,1,39,1.26,-4.29,M,-32.98,M,0.0,*59
$GPFPD,1151,247112.447,00,00,00,3725.1858586,12205.5864158,-37.266,-0.553,0.763,-5.004,00
$GPGGA,203815.447,3725.18664979,N,12205.58678956,W,1,38,1.41,-7.24,M,-32.98,M,0.0,*57
$GPFPD,1151,247113.447,00,00,00,3725.1866498,12205.5867896,-40.220,-0.817,1.634,-4.346,00
$GPGGA,203816.447,3725.18732786,N,12205.58716741,W,1,39,1.43,-10.66,M,-32.98,M,0.0,*6A
$GPFPD,1151,247114.447,00,00,00,3725.1873279,12205.5871674,-43.633,-0.615,1.422,-4.774,00
$GPGGA,203817.447,3725.18759577,N,12205.58719386,W,1,39,1.48,-3.48,M,-32.98,M,0.0,*5F
$GPFPD,1151,247115.447,00,00,00,3725.1875958,12205.5871939,-36.457,-0.368,1.020,-4.594,00
$GPGGA,203818.447,3725.18795142,N,12205.58728243,W,1,41,1.46,-5.18,M,-32.98,M,0.0,*5A
$GPFPD,1151,247116.447,00,00,00,3725.1879514,12205.5872824,-38.162,-0.484,0.691,-4.810,00
$GPGGA,203819.447,3725.18810327,N,12205.58741172,W,1,39,1.42,-9.90,M,-32.98,M,0.0,*51
$GPFPD,1151,247117.447,00,00,00,3725.1881033,12205.5874117,-42.878,-0.486,0.730,-4.807,00
$GPGGA,203820.447,3725.18838024,N,12205.58769806,W,1,40,1.50,-14.85,M,-32.98,M,0.0,*64
$GPFPD,1151,247118.447,00,00,00,3725.1883802,12205.5876981,-47.828,-0.638,0.783,-4.981,00
$GPGGA,203821.447,3725.18862104,N,12205.58791358,W,2,39,2.19,-13.65,M,-32.98,M,0.0,*64
$GPFPD,1151,247119.447,00,00,00,3725.1886210,12205.5879136,-46.630,-0.401,0.654,-3.979,00
$GPGGA,203822.447,3725.18881805,N,12205.58804041,W,1,40,1.64,-12.56,M,-32.98,M,0.0,*6F
